{
"type": "FeatureCollection",
"name": "commerce_all",
"crs": { "type": "name", "properties": { "name": "urn:ogc:def:crs:EPSG::3395" } },
"features": [
{ "type": "Feature", "properties": { "fid": 1, "Title": "Хайп", "Address": "Безымянная ул., 4/5, Бишкек", "Latitude": 42.83459, "Longitude": 74.61613, "Rating": 0.0, "Review_count": 0, "Category": "Салон красоты", "Phone": "N/A", "URL": "N/A", "TYPE": "услуги" }, "geometry": { "type": "Point", "coordinates": [ 8306229.596564704552293, 5257769.083271482028067 ] } },
{ "type": "Feature", "properties": { "fid": 2, "Title": "Би маг", "Address": "Безымянная ул., 4/5, Бишкек", "Latitude": 42.834583, "Longitude": 74.616104, "Rating": 0.0, "Review_count": 0, "Category": "Магазин продуктов", "Phone": "N/A", "URL": "N/A", "TYPE": "ритейл" }, "geometry": { "type": "Point", "coordinates": [ 8306226.702257943339646, 5257768.024493663571775 ] } },
{ "type": "Feature", "properties": { "fid": 3, "Title": "Аптека", "Address": "Безымянная ул., 4/5, Бишкек", "Latitude": 42.834553, "Longitude": 74.6161, "Rating": 0.0, "Review_count": 0, "Category": "Аптека", "Phone": "N/A", "URL": "N/A", "TYPE": "ритейл" }, "geometry": { "type": "Point", "coordinates": [ 8306226.25697997957468, 5257763.486875808797777 ] } },
{ "type": "Feature", "properties": { "fid": 4, "Title": "Маркет", "Address": "Безымянная ул., 4/5, Бишкек", "Latitude": 42.834602, "Longitude": 74.61607, "Rating": 0.0, "Review_count": 0, "Category": "Магазин продуктов", "Phone": "N/A", "URL": "N/A", "TYPE": "ритейл" }, "geometry": { "type": "Point", "coordinates": [ 8306222.91739525552839, 5257770.8983194520697 ] } },
{ "type": "Feature", "properties": { "fid": 5, "Title": "Отделение почтовой связи № 155902", "Address": "ул. Аникина, 3, Шуя", "Latitude": 56.86111, "Longitude": 41.359077, "Rating": 4.1, "Review_count": 75, "Category": "Почтовое отделение", "Phone": "+78002005888", "URL": "https://www.pochta.ru/", "TYPE": "услуги" }, "geometry": { "type": "Point", "coordinates": [ 4604071.391319792717695, 7695974.685044472105801 ] } },
{ "type": "Feature", "properties": { "fid": 6, "Title": "Почта банк", "Address": "ул. Аникина, 3, Шуя", "Latitude": 56.861148, "Longitude": 41.359048, "Rating": 0.0, "Review_count": 0, "Category": "Банкомат", "Phone": "+78005500770", "URL": "https://www.pochtabank.ru/", "TYPE": "услуги" }, "geometry": { "type": "Point", "coordinates": [ 4604068.163054560311139, 7695982.407503399066627 ] } },
{ "type": "Feature", "properties": { "fid": 7, "Title": "Финансовые услуги на кассе", "Address": "ул. Аникина, 3, Шуя", "Latitude": 56.861313, "Longitude": 41.35875, "Rating": 0.0, "Review_count": 0, "Category": "Финансовые услуги на кассе", "Phone": "+73833358088", "URL": "N/A", "TYPE": "услуги" }, "geometry": { "type": "Point", "coordinates": [ 4604034.989846304059029, 7696015.939324295148253 ] } },
{ "type": "Feature", "properties": { "fid": 8, "Title": "Юнистрим", "Address": "ул. Аникина, 3, Шуя", "Latitude": 56.861339, "Longitude": 41.358809, "Rating": 0.0, "Review_count": 0, "Category": "Денежные переводы", "Phone": "+74957445555", "URL": "http://unistream.ru/", "TYPE": "услуги" }, "geometry": { "type": "Point", "coordinates": [ 4604041.557696260511875, 7696021.223139919340611 ] } },
{ "type": "Feature", "properties": { "fid": 9, "Title": "Финансовые услуги на кассе", "Address": "ул. Аникина, 3, Шуя", "Latitude": 56.861313, "Longitude": 41.35875, "Rating": 0.0, "Review_count": 0, "Category": "Финансовые услуги на кассе", "Phone": "+74956465814", "URL": "N/A", "TYPE": "услуги" }, "geometry": { "type": "Point", "coordinates": [ 4604034.989846304059029, 7696015.939324295148253 ] } },
{ "type": "Feature", "properties": { "fid": 10, "Title": "Wildberries", "Address": "ул. Аникина, 3, Шуя", "Latitude": 56.861313, "Longitude": 41.35875, "Rating": 0.0, "Review_count": 0, "Category": "Пункт выдачи", "Phone": "N/A", "URL": "https://www.wildberries.ru/", "TYPE": "ритейл" }, "geometry": { "type": "Point", "coordinates": [ 4604034.989846304059029, 7696015.939324295148253 ] } },
{ "type": "Feature", "properties": { "fid": 11, "Title": "Продукты", "Address": "ул. Аникина, 5, Шуя", "Latitude": 56.860941, "Longitude": 41.360003, "Rating": 4.1, "Review_count": 36, "Category": "Магазин продуктов", "Phone": "N/A", "URL": "N/A", "TYPE": "ритейл" }, "geometry": { "type": "Point", "coordinates": [ 4604174.473168267868459, 7695940.340519926510751 ] } },
{ "type": "Feature", "properties": { "fid": 12, "Title": "Пятёрочка", "Address": "ул. Аникина, 82, Шуя", "Latitude": 56.863525, "Longitude": 41.371522, "Rating": 4.4, "Review_count": 81, "Category": "Супермаркет", "Phone": "+78005555505", "URL": "https://5ka.ru/?utm_campaign=kartochka&utm_medium=cpm&utm_source=ya_geo", "TYPE": "ритейл" }, "geometry": { "type": "Point", "coordinates": [ 4605456.762382715009153, 7696465.483288520947099 ] } },
{ "type": "Feature", "properties": { "fid": 13, "Title": "Эверест 1", "Address": "ул. Аникина, 82, Шуя", "Latitude": 56.863719, "Longitude": 41.371351, "Rating": 4.4, "Review_count": 35, "Category": "Аптека", "Phone": "+74935148809", "URL": "N/A", "TYPE": "ритейл" }, "geometry": { "type": "Point", "coordinates": [ 4605437.726749788969755, 7696504.911111905239522 ] } },
{ "type": "Feature", "properties": { "fid": 14, "Title": "5Post", "Address": "ул. Аникина, 82, Шуя", "Latitude": 56.863686, "Longitude": 41.371461, "Rating": 4.3, "Review_count": 11, "Category": "Пункт выдачи", "Phone": "+78005118800", "URL": "https://fivepost.ru/", "TYPE": "ритейл" }, "geometry": { "type": "Point", "coordinates": [ 4605449.971893776208162, 7696498.204302712343633 ] } },
{ "type": "Feature", "properties": { "fid": 15, "Title": "СберБанк", "Address": "ул. Аникина, 82, Шуя", "Latitude": 56.863732, "Longitude": 41.371421, "Rating": 0.0, "Review_count": 1, "Category": "Банкомат", "Phone": "+78005555550", "URL": "N/A", "TYPE": "услуги" }, "geometry": { "type": "Point", "coordinates": [ 4605445.519114144146442, 7696507.553189882077277 ] } },
{ "type": "Feature", "properties": { "fid": 16, "Title": "Финансовые услуги на кассе", "Address": "ул. Аникина, 82, Шуя", "Latitude": 56.863572, "Longitude": 41.371506, "Rating": 0.0, "Review_count": 0, "Category": "Финансовые услуги на кассе", "Phone": "+74955005550", "URL": "N/A", "TYPE": "услуги" }, "geometry": { "type": "Point", "coordinates": [ 4605454.981270861811936, 7696475.035371214151382 ] } },
{ "type": "Feature", "properties": { "fid": 17, "Title": "СберБанк", "Address": "ул. Аникина, 82, Шуя", "Latitude": 56.863572, "Longitude": 41.371506, "Rating": 0.0, "Review_count": 0, "Category": "Банкомат", "Phone": "N/A", "URL": "https://www.sberbank.ru/", "TYPE": "услуги" }, "geometry": { "type": "Point", "coordinates": [ 4605454.981270861811936, 7696475.035371214151382 ] } },
{ "type": "Feature", "properties": { "fid": 18, "Title": "Платёжный терминал", "Address": "ул. Аникина, 82, Шуя", "Latitude": 56.863572, "Longitude": 41.371506, "Rating": 0.0, "Review_count": 0, "Category": "Платёжный терминал", "Phone": "N/A", "URL": "N/A", "TYPE": "услуги" }, "geometry": { "type": "Point", "coordinates": [ 4605454.981270861811936, 7696475.035371214151382 ] } },
{ "type": "Feature", "properties": { "fid": 19, "Title": "Сбербанк России", "Address": "ул. Аникина, 82, Шуя", "Latitude": 56.863572, "Longitude": 41.371506, "Rating": 0.0, "Review_count": 0, "Category": "Платёжный терминал", "Phone": "+74955005550", "URL": "N/A", "TYPE": "услуги" }, "geometry": { "type": "Point", "coordinates": [ 4605454.981270861811936, 7696475.035371214151382 ] } },
{ "type": "Feature", "properties": { "fid": 20, "Title": "Цуп", "Address": "ул. Аникина, 82, Шуя", "Latitude": 56.863623, "Longitude": 41.371519, "Rating": 0.0, "Review_count": 0, "Category": "Платёжный терминал", "Phone": "+78003025051", "URL": "http://cuppay.ru/", "TYPE": "услуги" }, "geometry": { "type": "Point", "coordinates": [ 4605456.428424241952598, 7696485.40041075181216 ] } },
{ "type": "Feature", "properties": { "fid": 21, "Title": "Антей", "Address": "ул. Аникина, 82, Шуя", "Latitude": 56.863572, "Longitude": 41.371506, "Rating": 0.0, "Review_count": 0, "Category": "Аптека", "Phone": "+74935148809", "URL": "https://aptekaantey.ru/", "TYPE": "ритейл" }, "geometry": { "type": "Point", "coordinates": [ 4605454.981270861811936, 7696475.035371214151382 ] } },
{ "type": "Feature", "properties": { "fid": 22, "Title": "Сбербанк России", "Address": "ул. Аникина, 82, Шуя", "Latitude": 56.863546, "Longitude": 41.371448, "Rating": 0.0, "Review_count": 0, "Category": "Банкомат", "Phone": "+74955005550", "URL": "N/A", "TYPE": "услуги" }, "geometry": { "type": "Point", "coordinates": [ 4605448.524740396998823, 7696469.751238874159753 ] } },
{ "type": "Feature", "properties": { "fid": 23, "Title": "Красное&Белое", "Address": "ул. Балакова, 71, Шуя", "Latitude": 56.863078, "Longitude": 41.371166, "Rating": 4.6, "Review_count": 44, "Category": "Алкогольные напитки", "Phone": "+79227033000", "URL": "https://krasnoeibeloe.ru/", "TYPE": "ритейл" }, "geometry": { "type": "Point", "coordinates": [ 4605417.132643993012607, 7696374.637487356550992 ] } },
{ "type": "Feature", "properties": { "fid": 24, "Title": "Ильмакс", "Address": "ул. Балакова, 71, Шуя", "Latitude": 56.862905, "Longitude": 41.370316, "Rating": 0.0, "Review_count": 0, "Category": "Кровельные работы", "Phone": "+79689137565", "URL": "https://ilmaks.com/", "TYPE": "услуги" }, "geometry": { "type": "Point", "coordinates": [ 4605322.51107681915164, 7696339.478219301439822 ] } },
{ "type": "Feature", "properties": { "fid": 25, "Title": "Апрель", "Address": "ул. Балакова, 71, Шуя", "Latitude": 56.863155, "Longitude": 41.37141, "Rating": 4.4, "Review_count": 22, "Category": "Аптека", "Phone": "N/A", "URL": "https://apteka-april.ru/", "TYPE": "ритейл" }, "geometry": { "type": "Point", "coordinates": [ 4605444.294599746353924, 7696390.2864626403898 ] } },
{ "type": "Feature", "properties": { "fid": 26, "Title": "Пекарня Семейная", "Address": "ул. Балакова, 71, Шуя", "Latitude": 56.863142, "Longitude": 41.371359, "Rating": 4.2, "Review_count": 12, "Category": "Пекарня", "Phone": "N/A", "URL": "N/A", "TYPE": "общепит" }, "geometry": { "type": "Point", "coordinates": [ 4605438.617305715568364, 7696387.644425584934652 ] } },
{ "type": "Feature", "properties": { "fid": 27, "Title": "Радуга", "Address": "ул. Балакова, 80, Шуя", "Latitude": 56.862378, "Longitude": 41.371929, "Rating": 3.9, "Review_count": 2, "Category": "Клуб досуга", "Phone": "+74935149707", "URL": "http://www.kmg-shuya.ucoz.ru/", "TYPE": "досуг" }, "geometry": { "type": "Point", "coordinates": [ 4605502.069415467791259, 7696232.375559261068702 ] } },
{ "type": "Feature", "properties": { "fid": 28, "Title": "Wildberries", "Address": "ул. Балакова, 80, Шуя", "Latitude": 56.862588, "Longitude": 41.371569, "Rating": 4.4, "Review_count": 1, "Category": "Пункт выдачи", "Phone": "N/A", "URL": "N/A", "TYPE": "ритейл" }, "geometry": { "type": "Point", "coordinates": [ 4605461.994398782961071, 7696275.053857017308474 ] } },
{ "type": "Feature", "properties": { "fid": 29, "Title": "32 Жемчужины", "Address": "ул. Балакова, 80, Шуя", "Latitude": 56.862305, "Longitude": 41.371849, "Rating": 4.4, "Review_count": 12, "Category": "Стоматологическая клиника", "Phone": "+79158370378", "URL": "N/A", "TYPE": "услуги" }, "geometry": { "type": "Point", "coordinates": [ 4605493.163856204599142, 7696217.539826392196119 ] } },
{ "type": "Feature", "properties": { "fid": 30, "Title": "Ozon", "Address": "ул. Балакова, 80, Шуя", "Latitude": 56.862822, "Longitude": 41.371456, "Rating": 4.3, "Review_count": 2, "Category": "Пункт выдачи", "Phone": "+74952321000", "URL": "https://www.ozon.ru/", "TYPE": "ритейл" }, "geometry": { "type": "Point", "coordinates": [ 4605449.415296322666109, 7696322.609957903623581 ] } },
{ "type": "Feature", "properties": { "fid": 31, "Title": "Аква-стар", "Address": "Бульварный пер., 1, Шуя", "Latitude": 56.845919, "Longitude": 41.386933, "Rating": 2.8, "Review_count": 2, "Category": "Продажа бассейнов и оборудования", "Phone": "+79027469230", "URL": "http://as37.ru/", "TYPE": "ритейл" }, "geometry": { "type": "Point", "coordinates": [ 4607172.30705532990396, 7692888.161228349432349 ] } },
{ "type": "Feature", "properties": { "fid": 32, "Title": "ПарикМастер", "Address": "Бульварный пер., 1, Шуя", "Latitude": 56.845884, "Longitude": 41.386724, "Rating": 4.2, "Review_count": 4, "Category": "Парикмахерская", "Phone": "+79969183243", "URL": "https://mst.link/salon_parikmaster", "TYPE": "услуги" }, "geometry": { "type": "Point", "coordinates": [ 4607149.041281754150987, 7692881.051342962309718 ] } },
{ "type": "Feature", "properties": { "fid": 33, "Title": "Фермер", "Address": "Бульварный пер., 1, Шуя", "Latitude": 56.845881, "Longitude": 41.386748, "Rating": 4.2, "Review_count": 8, "Category": "Магазин мяса, колбас", "Phone": "N/A", "URL": "N/A", "TYPE": "ритейл" }, "geometry": { "type": "Point", "coordinates": [ 4607151.71294953301549, 7692880.441924525424838 ] } },
{ "type": "Feature", "properties": { "fid": 34, "Title": "Мастер", "Address": "Бульварный пер., 1, Шуя", "Latitude": 56.845876, "Longitude": 41.38664, "Rating": 4.1, "Review_count": 4, "Category": "Парикмахерская", "Phone": "N/A", "URL": "N/A", "TYPE": "услуги" }, "geometry": { "type": "Point", "coordinates": [ 4607139.690444527193904, 7692879.426227240823209 ] } },
{ "type": "Feature", "properties": { "fid": 35, "Title": "Краш Beauty House", "Address": "Стрелецкая ул., 9/4, Шуя", "Latitude": 56.852389, "Longitude": 41.378452, "Rating": 4.0, "Review_count": 0, "Category": "Салон красоты", "Phone": "+79109902779", "URL": "N/A", "TYPE": "услуги" }, "geometry": { "type": "Point", "coordinates": [ 4606228.206453911960125, 7694202.589017333462834 ] } },
{ "type": "Feature", "properties": { "fid": 36, "Title": "Горизонт-2003", "Address": "Васильевская ул., 6, Шуя", "Latitude": 56.852677, "Longitude": 41.380681, "Rating": 0.0, "Review_count": 1, "Category": "Коммунальная служба", "Phone": "+74935132767", "URL": "http://gorizont-2003.ru/", "TYPE": "услуги" }, "geometry": { "type": "Point", "coordinates": [ 4606476.337598890997469, 7694261.103626873344183 ] } },
{ "type": "Feature", "properties": { "fid": 37, "Title": "Канцелярский базар", "Address": "Васильевская ул., 6, Шуя", "Latitude": 56.852675, "Longitude": 41.380161, "Rating": 4.8, "Review_count": 55, "Category": "Магазин канцтоваров", "Phone": "+74935143515", "URL": "N/A", "TYPE": "ритейл" }, "geometry": { "type": "Point", "coordinates": [ 4606418.451463677920401, 7694260.697273860685527 ] } },
{ "type": "Feature", "properties": { "fid": 38, "Title": "КупиБумагу. ру", "Address": "Васильевская ул., 6, Шуя", "Latitude": 56.852676, "Longitude": 41.380369, "Rating": 4.3, "Review_count": 4, "Category": "Магазин канцтоваров", "Phone": "+79203762583", "URL": "https://www.kupibumagu.ru/", "TYPE": "ритейл" }, "geometry": { "type": "Point", "coordinates": [ 4606441.605917763896286, 7694260.900450363755226 ] } },
{ "type": "Feature", "properties": { "fid": 39, "Title": "Объединение Канцтовары", "Address": "Васильевская ул., 6, Шуя", "Latitude": 56.852672, "Longitude": 41.380444, "Rating": 4.2, "Review_count": 5, "Category": "Магазин канцтоваров", "Phone": "+79106965064", "URL": "https://www.backulin.ru/", "TYPE": "ритейл" }, "geometry": { "type": "Point", "coordinates": [ 4606449.954879571683705, 7694260.087744379416108 ] } },
{ "type": "Feature", "properties": { "fid": 40, "Title": "ТриО", "Address": "Васильевская ул., 6, Шуя", "Latitude": 56.852733, "Longitude": 41.381002, "Rating": 4.0, "Review_count": 3, "Category": "Магазин мебели", "Phone": "N/A", "URL": "N/A", "TYPE": "ритейл" }, "geometry": { "type": "Point", "coordinates": [ 4606512.071155435405672, 7694272.481520130299032 ] } },
{ "type": "Feature", "properties": { "fid": 41, "Title": "Услуги репетиторов", "Address": "Васильевская ул., 6, Шуя", "Latitude": 56.852672, "Longitude": 41.380453, "Rating": 0.0, "Review_count": 0, "Category": "Услуги репетиторов", "Phone": "+79022424312", "URL": "N/A", "TYPE": "услуги" }, "geometry": { "type": "Point", "coordinates": [ 4606450.956754989922047, 7694260.087744379416108 ] } },
{ "type": "Feature", "properties": { "fid": 42, "Title": "Трикотаж", "Address": "Васильевская ул., 6, Шуя", "Latitude": 56.85273, "Longitude": 41.380954, "Rating": 0.0, "Review_count": 0, "Category": "Магазин одежды", "Phone": "N/A", "URL": "N/A", "TYPE": "ритейл" }, "geometry": { "type": "Point", "coordinates": [ 4606506.727819877676666, 7694271.871989700943232 ] } },
{ "type": "Feature", "properties": { "fid": 43, "Title": "Geona", "Address": "Васильевская ул., 6, Шуя", "Latitude": 56.852761, "Longitude": 41.380775, "Rating": 0.0, "Review_count": 0, "Category": "Двери", "Phone": "+79085651558", "URL": "N/A", "TYPE": "ритейл" }, "geometry": { "type": "Point", "coordinates": [ 4606486.80163102503866, 7694278.170473170466721 ] } },
{ "type": "Feature", "properties": { "fid": 44, "Title": "1С-Клуб программистов", "Address": "Васильевская ул., 6, Шуя", "Latitude": 56.852672, "Longitude": 41.380453, "Rating": 0.0, "Review_count": 0, "Category": "Компьютерные курсы", "Phone": "+79189165426", "URL": "https://1s-klub.ru/", "TYPE": "услуги" }, "geometry": { "type": "Point", "coordinates": [ 4606450.956754989922047, 7694260.087744379416108 ] } },
{ "type": "Feature", "properties": { "fid": 45, "Title": "Бухгалтерские услуги", "Address": "Васильевская ул., 6, Шуя", "Latitude": 56.852741, "Longitude": 41.380611, "Rating": 0.0, "Review_count": 1, "Category": "Бухгалтерские услуги", "Phone": "+79644933587", "URL": "https://37buh.ru/", "TYPE": "услуги" }, "geometry": { "type": "Point", "coordinates": [ 4606468.54523453488946, 7694274.106934849172831 ] } },
{ "type": "Feature", "properties": { "fid": 46, "Title": "Партнер Софт", "Address": "Васильевская ул., 6, Шуя", "Latitude": 56.852672, "Longitude": 41.380453, "Rating": 0.0, "Review_count": 0, "Category": "Программное обеспечение", "Phone": "+79189165426", "URL": "https://partnersoft.pro/", "TYPE": "услуги" }, "geometry": { "type": "Point", "coordinates": [ 4606450.956754989922047, 7694260.087744379416108 ] } },
{ "type": "Feature", "properties": { "fid": 47, "Title": "LogoPro", "Address": "Васильевская ул., 32, Шуя", "Latitude": 56.853306, "Longitude": 41.386283, "Rating": 0.0, "Review_count": 0, "Category": "Одежда оптом", "Phone": "+79106946603", "URL": "N/A", "TYPE": "ритейл" }, "geometry": { "type": "Point", "coordinates": [ 4607099.949386314488947, 7694388.902731791138649 ] } },
{ "type": "Feature", "properties": { "fid": 48, "Title": "4за.рф", "Address": "ул. Вихрева, 23, Шуя", "Latitude": 56.848112, "Longitude": 41.375552, "Rating": 4.1, "Review_count": 27, "Category": "Супермаркет", "Phone": "+78007002422", "URL": "N/A", "TYPE": "ритейл" }, "geometry": { "type": "Point", "coordinates": [ 4605905.37993061169982, 7693333.659646140411496 ] } },
{ "type": "Feature", "properties": { "fid": 49, "Title": "Lidiya Dent", "Address": "ул. Вихрева, 63, Шуя", "Latitude": 56.849086, "Longitude": 41.38389, "Rating": 4.6, "Review_count": 7, "Category": "Стоматологическая клиника", "Phone": "+79051566888", "URL": "N/A", "TYPE": "услуги" }, "geometry": { "type": "Point", "coordinates": [ 4606833.561844846233726, 7693531.531918165273964 ] } },
{ "type": "Feature", "properties": { "fid": 50, "Title": "Ситилаб", "Address": "ул. Вихрева, 75, Шуя", "Latitude": 56.849439, "Longitude": 41.387053, "Rating": 4.4, "Review_count": 37, "Category": "Медицинская лаборатория", "Phone": "+74932952037", "URL": "https://citilab.ru/?utm_campaign=shuya&utm_content=vihreva-dom75&utm_medium=cpc&utm_source=yandex_maps", "TYPE": "услуги" }, "geometry": { "type": "Point", "coordinates": [ 4607185.665394225157797, 7693603.246656767092645 ] } },
{ "type": "Feature", "properties": { "fid": 51, "Title": "Витамед", "Address": "ул. Вихрева, 80, Шуя", "Latitude": 56.848654, "Longitude": 41.382878, "Rating": 4.8, "Review_count": 24, "Category": "Диагностический центр", "Phone": "+74935141150", "URL": "http://витамед-шуя.рф/", "TYPE": "услуги" }, "geometry": { "type": "Point", "coordinates": [ 4606720.90652016364038, 7693443.768629660829902 ] } },
{ "type": "Feature", "properties": { "fid": 52, "Title": "Мини-отель на Вихрева 82", "Address": "ул. Вихрева, 82, Шуя", "Latitude": 56.84829, "Longitude": 41.38374, "Rating": 4.1, "Review_count": 15, "Category": "Гостиница", "Phone": "+79051068242", "URL": "https://dubki-shuya.ru/", "TYPE": "размещение" }, "geometry": { "type": "Point", "coordinates": [ 4606816.863921226933599, 7693369.820722466334701 ] } },
{ "type": "Feature", "properties": { "fid": 53, "Title": "Комплекс Дубки на улице Вихрева 82", "Address": "ул. Вихрева, 82, Шуя", "Latitude": 56.848271, "Longitude": 41.383702, "Rating": 0.0, "Review_count": 0, "Category": "Жильё посуточно", "Phone": "N/A", "URL": "https://travel.mts.ru/hotels/Kompleks_Dubki_na_ulice_Vihreva_82_e99ea791-6427-4b9d-b200-9afa237c7180", "TYPE": "размещение" }, "geometry": { "type": "Point", "coordinates": [ 4606812.633780577220023, 7693365.960824063047767 ] } },
{ "type": "Feature", "properties": { "fid": 54, "Title": "Я был здесь", "Address": "ул. Вихрева, 127, Шуя", "Latitude": 56.850974, "Longitude": 41.398414, "Rating": 4.3, "Review_count": 2, "Category": "Курсы и мастер-классы", "Phone": "N/A", "URL": "http://я-был-здесь.рф/", "TYPE": "досуг" }, "geometry": { "type": "Point", "coordinates": [ 4608450.366129128262401, 7693915.101931179873645 ] } },
{ "type": "Feature", "properties": { "fid": 55, "Title": "Высшая лига", "Address": "ул. Вихрева, 152, Шуя", "Latitude": 56.849792, "Longitude": 41.391964, "Rating": 2.9, "Review_count": 64, "Category": "Супермаркет", "Phone": "+78004501001", "URL": "https://vliga.com/", "TYPE": "ритейл" }, "geometry": { "type": "Point", "coordinates": [ 4607732.355413511395454, 7693674.962074564769864 ] } },
{ "type": "Feature", "properties": { "fid": 56, "Title": "Парикмахерская", "Address": "Вокзальная ул., 4, Шуя", "Latitude": 56.851396, "Longitude": 41.354791, "Rating": 4.0, "Review_count": 11, "Category": "Парикмахерская", "Phone": "N/A", "URL": "N/A", "TYPE": "услуги" }, "geometry": { "type": "Point", "coordinates": [ 4603594.275982252322137, 7694000.838987129740417 ] } },
{ "type": "Feature", "properties": { "fid": 57, "Title": "Альфа-ГАРАНТ", "Address": "2-я Восточная ул., 25, Шуя", "Latitude": 56.851633, "Longitude": 41.400549, "Rating": 0.0, "Review_count": 1, "Category": "Охранное предприятие", "Phone": "+79158385014", "URL": "http://www.aesg.ru/", "TYPE": "услуги" }, "geometry": { "type": "Point", "coordinates": [ 4608688.033241970464587, 7694048.99031865503639 ] } },
{ "type": "Feature", "properties": { "fid": 58, "Title": "Сувенир", "Address": "2-я Восточная ул., 25, Шуя", "Latitude": 56.851633, "Longitude": 41.400549, "Rating": 0.0, "Review_count": 1, "Category": "Печать на ткани", "Phone": "+79807364377", "URL": "N/A", "TYPE": "услуги" }, "geometry": { "type": "Point", "coordinates": [ 4608688.033241970464587, 7694048.99031865503639 ] } },
{ "type": "Feature", "properties": { "fid": 59, "Title": "Услуги репетиторов", "Address": "ул. Генерала Белова, 18, корп. 1, Шуя", "Latitude": 56.847764, "Longitude": 41.390541, "Rating": 0.0, "Review_count": 0, "Category": "Услуги репетиторов", "Phone": "N/A", "URL": "N/A", "TYPE": "услуги" }, "geometry": { "type": "Point", "coordinates": [ 4607573.947778112255037, 7693262.963209218345582 ] } },
{ "type": "Feature", "properties": { "fid": 60, "Title": "Английский язык", "Address": "ул. Генерала Белова, 18, корп. 1, Шуя", "Latitude": 56.847764, "Longitude": 41.390541, "Rating": 0.0, "Review_count": 0, "Category": "Курсы иностранных языков", "Phone": "+79158299185", "URL": "N/A", "TYPE": "услуги" }, "geometry": { "type": "Point", "coordinates": [ 4607573.947778112255037, 7693262.963209218345582 ] } },
{ "type": "Feature", "properties": { "fid": 61, "Title": "Банк Евроальянс, банкомат", "Address": "ул. Малахия Белова, 1А, Шуя", "Latitude": 56.847838, "Longitude": 41.391215, "Rating": 0.0, "Review_count": 0, "Category": "Банкомат", "Phone": "+78007009222", "URL": "http://www.euroalliance.ru/", "TYPE": "услуги" }, "geometry": { "type": "Point", "coordinates": [ 4607648.977114907465875, 7693277.996304346248507 ] } },
{ "type": "Feature", "properties": { "fid": 62, "Title": "Парикмахерская", "Address": "ул. Генерала Белова, 24, Шуя", "Latitude": 56.848107, "Longitude": 41.392325, "Rating": 4.7, "Review_count": 33, "Category": "Парикмахерская", "Phone": "+74935138667", "URL": "N/A", "TYPE": "услуги" }, "geometry": { "type": "Point", "coordinates": [ 4607772.541749687865376, 7693332.643888063728809 ] } },
{ "type": "Feature", "properties": { "fid": 63, "Title": "Авокадо", "Address": "ул. Генерала Белова, 26, Шуя", "Latitude": 56.84809, "Longitude": 41.39307, "Rating": 4.2, "Review_count": 10, "Category": "Магазин продуктов", "Phone": "+79051560155", "URL": "N/A", "TYPE": "ритейл" }, "geometry": { "type": "Point", "coordinates": [ 4607855.474770328961313, 7693329.190311618149281 ] } },
{ "type": "Feature", "properties": { "fid": 64, "Title": "Красное&Белое", "Address": "ул. Генерала Белова, 33, Шуя", "Latitude": 56.846594, "Longitude": 41.376224, "Rating": 4.5, "Review_count": 66, "Category": "Алкогольные напитки", "Phone": "+79227033000", "URL": "https://krasnoeibeloe.ru/", "TYPE": "ритейл" }, "geometry": { "type": "Point", "coordinates": [ 4605980.186628425493836, 7693025.281752349808812 ] } },
{ "type": "Feature", "properties": { "fid": 65, "Title": "Век", "Address": "ул. Генерала Белова, 33, Шуя", "Latitude": 56.846574, "Longitude": 41.376019, "Rating": 4.8, "Review_count": 20, "Category": "Ритуальные услуги", "Phone": "+79203663636", "URL": "https://ритуал-век.рф/", "TYPE": "услуги" }, "geometry": { "type": "Point", "coordinates": [ 4605957.366132812574506, 7693021.218886313028634 ] } },
{ "type": "Feature", "properties": { "fid": 66, "Title": "Каравайка", "Address": "ул. Генерала Белова, 37, Шуя", "Latitude": 56.847003, "Longitude": 41.37987, "Rating": 4.9, "Review_count": 86, "Category": "Пекарня", "Phone": "+79158169696", "URL": "N/A", "TYPE": "общепит" }, "geometry": { "type": "Point", "coordinates": [ 4606386.057491856627166, 7693108.367840861901641 ] } },
{ "type": "Feature", "properties": { "fid": 67, "Title": "CDEK", "Address": "ул. Генерала Белова, 37, Шуя", "Latitude": 56.84709, "Longitude": 41.380148, "Rating": 4.7, "Review_count": 61, "Category": "Курьерские услуги", "Phone": "+79010300232", "URL": "https://www.cdek.ru/ru/?utm_campaign=standart&utm_medium=cpc&utm_source=ya_maps", "TYPE": "услуги" }, "geometry": { "type": "Point", "coordinates": [ 4606417.004310296848416, 7693126.041527394205332 ] } },
{ "type": "Feature", "properties": { "fid": 68, "Title": "Cdek", "Address": "ул. Генерала Белова, 37, Шуя", "Latitude": 56.847015, "Longitude": 41.379973, "Rating": 4.3, "Review_count": 4, "Category": "Пункт выдачи", "Phone": "+79010300232", "URL": "https://www.cdek.ru/", "TYPE": "ритейл" }, "geometry": { "type": "Point", "coordinates": [ 4606397.523399408906698, 7693110.805588275194168 ] } },
{ "type": "Feature", "properties": { "fid": 69, "Title": "Ритуал", "Address": "ул. Генерала Белова, 37, Шуя", "Latitude": 56.847025, "Longitude": 41.379639, "Rating": 0.0, "Review_count": 0, "Category": "Ритуальные услуги", "Phone": "+79158256344", "URL": "http://ритуал-шуя.рф/", "TYPE": "услуги" }, "geometry": { "type": "Point", "coordinates": [ 4606360.342689483426511, 7693112.837045055814087 ] } },
{ "type": "Feature", "properties": { "fid": 70, "Title": "Бристоль", "Address": "ул. Генерала Белова, 67, Шуя", "Latitude": 56.848605, "Longitude": 41.393855, "Rating": 4.6, "Review_count": 53, "Category": "Алкогольные напитки", "Phone": "+78002222002", "URL": "https://bristol.ru/", "TYPE": "ритейл" }, "geometry": { "type": "Point", "coordinates": [ 4607942.860570601187646, 7693433.814061629585922 ] } },
{ "type": "Feature", "properties": { "fid": 71, "Title": "Отделение почтовой связи № 155912", "Address": "ул. Генерала Белова, 67, Шуя", "Latitude": 56.848718, "Longitude": 41.394956, "Rating": 4.6, "Review_count": 82, "Category": "Почтовое отделение", "Phone": "+78001000000", "URL": "https://www.pochta.ru/", "TYPE": "услуги" }, "geometry": { "type": "Point", "coordinates": [ 4608065.423329964280128, 7693456.770534144714475 ] } },
{ "type": "Feature", "properties": { "fid": 72, "Title": "Почта банк", "Address": "ул. Генерала Белова, 67, Шуя", "Latitude": 56.848725, "Longitude": 41.395015, "Rating": 4.1, "Review_count": 6, "Category": "Банк", "Phone": "+74955321300", "URL": "N/A", "TYPE": "услуги" }, "geometry": { "type": "Point", "coordinates": [ 4608071.991179921664298, 7693458.192618801258504 ] } },
{ "type": "Feature", "properties": { "fid": 73, "Title": "Платёжный терминал", "Address": "ул. Генерала Белова, 67, Шуя", "Latitude": 56.848714, "Longitude": 41.394359, "Rating": 0.0, "Review_count": 0, "Category": "Платёжный терминал", "Phone": "+74956621500", "URL": "N/A", "TYPE": "услуги" }, "geometry": { "type": "Point", "coordinates": [ 4607998.965593961067498, 7693455.957914461381733 ] } },
{ "type": "Feature", "properties": { "fid": 74, "Title": "Финансовые услуги на кассе", "Address": "ул. Генерала Белова, 67, Шуя", "Latitude": 56.848714, "Longitude": 41.394359, "Rating": 0.0, "Review_count": 0, "Category": "Финансовые услуги на кассе", "Phone": "+74956465814", "URL": "N/A", "TYPE": "услуги" }, "geometry": { "type": "Point", "coordinates": [ 4607998.965593961067498, 7693455.957914461381733 ] } },
{ "type": "Feature", "properties": { "fid": 75, "Title": "Wildberries", "Address": "ул. Генерала Белова, 67, Шуя", "Latitude": 56.848714, "Longitude": 41.394359, "Rating": 0.0, "Review_count": 0, "Category": "Пункт выдачи", "Phone": "N/A", "URL": "https://www.wildberries.ru/", "TYPE": "ритейл" }, "geometry": { "type": "Point", "coordinates": [ 4607998.965593961067498, 7693455.957914461381733 ] } },
{ "type": "Feature", "properties": { "fid": 76, "Title": "Платёжный терминал", "Address": "ул. Генерала Белова, 67, Шуя", "Latitude": 56.848714, "Longitude": 41.394359, "Rating": 0.0, "Review_count": 0, "Category": "Платёжный терминал", "Phone": "+74957873333", "URL": "N/A", "TYPE": "услуги" }, "geometry": { "type": "Point", "coordinates": [ 4607998.965593961067498, 7693455.957914461381733 ] } },
{ "type": "Feature", "properties": { "fid": 77, "Title": "Юнистрим", "Address": "ул. Генерала Белова, 67, Шуя", "Latitude": 56.848717, "Longitude": 41.394875, "Rating": 0.0, "Review_count": 0, "Category": "Денежные переводы", "Phone": "+74957445555", "URL": "http://unistream.ru/", "TYPE": "услуги" }, "geometry": { "type": "Point", "coordinates": [ 4608056.406451209448278, 7693456.567379216663539 ] } },
{ "type": "Feature", "properties": { "fid": 78, "Title": "Финансовые услуги на кассе", "Address": "ул. Генерала Белова, 67, Шуя", "Latitude": 56.848714, "Longitude": 41.394359, "Rating": 0.0, "Review_count": 0, "Category": "Финансовые услуги на кассе", "Phone": "+73833358088", "URL": "N/A", "TYPE": "услуги" }, "geometry": { "type": "Point", "coordinates": [ 4607998.965593961067498, 7693455.957914461381733 ] } },
{ "type": "Feature", "properties": { "fid": 79, "Title": "Стоматологический центр", "Address": "ул. Генерала Белова, 107, Шуя", "Latitude": 56.847974, "Longitude": 41.38843, "Rating": 4.0, "Review_count": 62, "Category": "Стоматологическая поликлиника", "Phone": "+74935132257", "URL": "http://shuia.spravker.ru/stomatologija/", "TYPE": "услуги" }, "geometry": { "type": "Point", "coordinates": [ 4607338.952333047986031, 7693305.624773218296468 ] } },
{ "type": "Feature", "properties": { "fid": 80, "Title": "Ozon", "Address": "ул. Генерала Горбатова, 12, Шуя", "Latitude": 56.855051, "Longitude": 41.394164, "Rating": 4.6, "Review_count": 6, "Category": "Пункт выдачи", "Phone": "+74952321000", "URL": "https://www.ozon.ru/", "TYPE": "ритейл" }, "geometry": { "type": "Point", "coordinates": [ 4607977.258293256163597, 7694743.460031270980835 ] } },
{ "type": "Feature", "properties": { "fid": 81, "Title": "Wildberries", "Address": "ул. Генерала Горбатова, 12, Шуя", "Latitude": 56.85495, "Longitude": 41.394063, "Rating": 4.4, "Review_count": 6, "Category": "Пункт выдачи", "Phone": "N/A", "URL": "https://www.wildberries.ru/", "TYPE": "ритейл" }, "geometry": { "type": "Point", "coordinates": [ 4607966.015024686232209, 7694722.937924022786319 ] } },
{ "type": "Feature", "properties": { "fid": 82, "Title": "Фея", "Address": "Заводская ул., 3, Шуя", "Latitude": 56.86453, "Longitude": 41.370703, "Rating": 4.3, "Review_count": 29, "Category": "Магазин хозтоваров и бытовой химии", "Phone": "N/A", "URL": "N/A", "TYPE": "ритейл" }, "geometry": { "type": "Point", "coordinates": [ 4605365.591719754971564, 7696669.737895893864334 ] } },
{ "type": "Feature", "properties": { "fid": 83, "Title": "Тейковские мясопродукты", "Address": "Заводская ул., 3, Шуя", "Latitude": 56.864475, "Longitude": 41.370693, "Rating": 4.1, "Review_count": 11, "Category": "Магазин мяса, колбас", "Phone": "N/A", "URL": "N/A", "TYPE": "ритейл" }, "geometry": { "type": "Point", "coordinates": [ 4605364.478524847887456, 7696658.55964051745832 ] } },
{ "type": "Feature", "properties": { "fid": 84, "Title": "Товары для дома", "Address": "Заводская ул., 3, Шуя", "Latitude": 56.86455, "Longitude": 41.370711, "Rating": 4.2, "Review_count": 2, "Category": "Магазин посуды", "Phone": "N/A", "URL": "N/A", "TYPE": "ритейл" }, "geometry": { "type": "Point", "coordinates": [ 4605366.482275681570172, 7696673.802720120176673 ] } },
{ "type": "Feature", "properties": { "fid": 85, "Title": "Колбасная лавка", "Address": "Заводская ул., 3, Шуя", "Latitude": 56.864439, "Longitude": 41.370816, "Rating": 4.1, "Review_count": 13, "Category": "Магазин мяса, колбас", "Phone": "N/A", "URL": "N/A", "TYPE": "ритейл" }, "geometry": { "type": "Point", "coordinates": [ 4605378.170822214335203, 7696651.242973208427429 ] } },
{ "type": "Feature", "properties": { "fid": 86, "Title": "Авокадо", "Address": "Заводская ул., 3, Шуя", "Latitude": 56.864423, "Longitude": 41.370746, "Rating": 3.8, "Review_count": 9, "Category": "Магазин продуктов", "Phone": "+79109869595", "URL": "http://авокадо.рф/", "TYPE": "ритейл" }, "geometry": { "type": "Point", "coordinates": [ 4605370.378457859158516, 7696647.991123344749212 ] } },
{ "type": "Feature", "properties": { "fid": 87, "Title": "Продукты", "Address": "Заводская ул., 11, Шуя", "Latitude": 56.86562, "Longitude": 41.369636, "Rating": 4.0, "Review_count": 33, "Category": "Магазин продуктов", "Phone": "N/A", "URL": "N/A", "TYPE": "ритейл" }, "geometry": { "type": "Point", "coordinates": [ 4605246.813823078759015, 7696891.273998009972274 ] } },
{ "type": "Feature", "properties": { "fid": 88, "Title": "Финансовые услуги на кассе", "Address": "Завокзальная ул., 13, Шуя", "Latitude": 56.849984, "Longitude": 41.34691, "Rating": 0.0, "Review_count": 0, "Category": "Финансовые услуги на кассе", "Phone": "+74955005550", "URL": "N/A", "TYPE": "услуги" }, "geometry": { "type": "Point", "coordinates": [ 4602716.967075310647488, 7693713.969045913778245 ] } },
{ "type": "Feature", "properties": { "fid": 89, "Title": "Сбербанк России", "Address": "Завокзальная ул., 13, Шуя", "Latitude": 56.849984, "Longitude": 41.34691, "Rating": 0.0, "Review_count": 0, "Category": "Платёжный терминал", "Phone": "+74955005550", "URL": "N/A", "TYPE": "услуги" }, "geometry": { "type": "Point", "coordinates": [ 4602716.967075310647488, 7693713.969045913778245 ] } },
{ "type": "Feature", "properties": { "fid": 90, "Title": "Россельхозбанк", "Address": "Комсомольская площадь, 3, Шуя", "Latitude": 56.851791, "Longitude": 41.368371, "Rating": 4.9, "Review_count": 134, "Category": "Банк", "Phone": "+78001000100", "URL": "https://www.rshb.ru/", "TYPE": "услуги" }, "geometry": { "type": "Point", "coordinates": [ 4605105.994667225517333, 7694081.091376448981464 ] } },
{ "type": "Feature", "properties": { "fid": 91, "Title": "Центр сантехники", "Address": "Комсомольская площадь, 3, Шуя", "Latitude": 56.851495, "Longitude": 41.369284, "Rating": 3.9, "Review_count": 10, "Category": "Магазин сантехники", "Phone": "+79303433328", "URL": "N/A", "TYPE": "ритейл" }, "geometry": { "type": "Point", "coordinates": [ 4605207.629362319596112, 7694020.952797235921025 ] } },
{ "type": "Feature", "properties": { "fid": 92, "Title": "Россельхозбанк", "Address": "Комсомольская площадь, 3, Шуя", "Latitude": 56.851486, "Longitude": 41.368984, "Rating": 0.0, "Review_count": 0, "Category": "Банкомат", "Phone": "N/A", "URL": "https://rshb.ru/", "TYPE": "услуги" }, "geometry": { "type": "Point", "coordinates": [ 4605174.23351508192718, 7694019.124266837723553 ] } },
{ "type": "Feature", "properties": { "fid": 93, "Title": "Россельхозбанк", "Address": "Комсомольская площадь, 3, Шуя", "Latitude": 56.851517, "Longitude": 41.368915, "Rating": 0.0, "Review_count": 3, "Category": "Платёжный терминал", "Phone": "+78001000100", "URL": "https://www.rshb.ru/", "TYPE": "услуги" }, "geometry": { "type": "Point", "coordinates": [ 4605166.552470216527581, 7694025.422540073283017 ] } },
{ "type": "Feature", "properties": { "fid": 94, "Title": "Империя Вин", "Address": "Комсомольская площадь, 3, Шуя", "Latitude": 56.851487, "Longitude": 41.368714, "Rating": 2.5, "Review_count": 1, "Category": "Алкогольные напитки", "Phone": "N/A", "URL": "N/A", "TYPE": "ритейл" }, "geometry": { "type": "Point", "coordinates": [ 4605144.177252567373216, 7694019.327436860650778 ] } },
{ "type": "Feature", "properties": { "fid": 95, "Title": "Домоуправ", "Address": "Комсомольская площадь, 3, Шуя", "Latitude": 56.851515, "Longitude": 41.369218, "Rating": 0.0, "Review_count": 0, "Category": "Коммунальная служба", "Phone": "N/A", "URL": "N/A", "TYPE": "услуги" }, "geometry": { "type": "Point", "coordinates": [ 4605200.282275926321745, 7694025.016199704259634 ] } },
{ "type": "Feature", "properties": { "fid": 96, "Title": "Защита", "Address": "Комсомольская площадь, 3, Шуя", "Latitude": 56.851524, "Longitude": 41.369414, "Rating": 0.0, "Review_count": 0, "Category": "Системы безопасности и охраны", "Phone": "N/A", "URL": "N/A", "TYPE": "ритейл" }, "geometry": { "type": "Point", "coordinates": [ 4605222.100896122865379, 7694026.844731527380645 ] } },
{ "type": "Feature", "properties": { "fid": 97, "Title": "Россельхозбанк", "Address": "Комсомольская площадь, 3, Шуя", "Latitude": 56.851524, "Longitude": 41.368912, "Rating": 0.0, "Review_count": 0, "Category": "Платёжный терминал", "Phone": "+78001000100", "URL": "https://www.rshb.ru/", "TYPE": "услуги" }, "geometry": { "type": "Point", "coordinates": [ 4605166.218511744402349, 7694026.844731527380645 ] } },
{ "type": "Feature", "properties": { "fid": 98, "Title": "Апартаменты Студия Dubki около вокзала на Комсомольской 3", "Address": "Комсомольская площадь, 3, Шуя", "Latitude": 56.851555, "Longitude": 41.368893, "Rating": 0.0, "Review_count": 1, "Category": "Гостиница", "Phone": "N/A", "URL": "N/A", "TYPE": "размещение" }, "geometry": { "type": "Point", "coordinates": [ 4605164.103441420011222, 7694033.143011184409261 ] } },
{ "type": "Feature", "properties": { "fid": 99, "Title": "Престиж", "Address": "Комсомольская площадь, 10, Шуя", "Latitude": 56.851758, "Longitude": 41.372252, "Rating": 4.6, "Review_count": 23, "Category": "Турагентство", "Phone": "+74935133315", "URL": "N/A", "TYPE": "услуги" }, "geometry": { "type": "Point", "coordinates": [ 4605538.025610994547606, 7694074.386713892221451 ] } },
{ "type": "Feature", "properties": { "fid": 100, "Title": "Престиж", "Address": "Комсомольская площадь, 10, Шуя", "Latitude": 56.85178, "Longitude": 41.372313, "Rating": 3.9, "Review_count": 1, "Category": "Салон красоты", "Phone": "+79109895394", "URL": "N/A", "TYPE": "услуги" }, "geometry": { "type": "Point", "coordinates": [ 4605544.816099932417274, 7694078.856488270685077 ] } },
{ "type": "Feature", "properties": { "fid": 101, "Title": "Юридическое бюро", "Address": "Комсомольская площадь, 10, Шуя", "Latitude": 56.851804, "Longitude": 41.372498, "Rating": 4.9, "Review_count": 19, "Category": "Юридические услуги", "Phone": "+79605037715", "URL": "N/A", "TYPE": "услуги" }, "geometry": { "type": "Point", "coordinates": [ 4605565.410205729305744, 7694083.732608781196177 ] } },
{ "type": "Feature", "properties": { "fid": 102, "Title": "Движение", "Address": "Комсомольская площадь, 10, Шуя", "Latitude": 56.851798, "Longitude": 41.372444, "Rating": 4.6, "Review_count": 11, "Category": "Фитнес-клуб", "Phone": "+79968298378", "URL": "http://kinesis.su/", "TYPE": "досуг" }, "geometry": { "type": "Point", "coordinates": [ 4605559.398953226394951, 7694082.513578361831605 ] } },
{ "type": "Feature", "properties": { "fid": 103, "Title": "Като nails", "Address": "Комсомольская площадь, 10, Шуя", "Latitude": 56.851608, "Longitude": 41.372584, "Rating": 4.5, "Review_count": 10, "Category": "Салон красоты", "Phone": "+79806923122", "URL": "https://mst.link/kato_nailss", "TYPE": "услуги" }, "geometry": { "type": "Point", "coordinates": [ 4605574.983681937679648, 7694043.911049827933311 ] } },
{ "type": "Feature", "properties": { "fid": 104, "Title": "Студия А2", "Address": "Комсомольская площадь, 10, Шуя", "Latitude": 56.851525, "Longitude": 41.372588, "Rating": 4.4, "Review_count": 9, "Category": "Салон красоты", "Phone": "+79206753005,+7 (915) 824-70-02", "URL": "N/A", "TYPE": "услуги" }, "geometry": { "type": "Point", "coordinates": [ 4605575.428959900513291, 7694027.047901758924127 ] } },
{ "type": "Feature", "properties": { "fid": 105, "Title": "Wildberries", "Address": "Комсомольская площадь, 10, Шуя", "Latitude": 56.851581, "Longitude": 41.372714, "Rating": 4.3, "Review_count": 9, "Category": "Пункт выдачи", "Phone": "+78001007505", "URL": "https://www.wildberries.ru/", "TYPE": "ритейл" }, "geometry": { "type": "Point", "coordinates": [ 4605589.455215740948915, 7694038.425443323329091 ] } },
{ "type": "Feature", "properties": { "fid": 106, "Title": "Флагман", "Address": "Комсомольская площадь, 10, Шуя", "Latitude": 56.851799, "Longitude": 41.372636, "Rating": 4.0, "Review_count": 2, "Category": "Бизнес-центр", "Phone": "N/A", "URL": "N/A", "TYPE": "услуги" }, "geometry": { "type": "Point", "coordinates": [ 4605580.772295458242297, 7694082.716750085353851 ] } },
{ "type": "Feature", "properties": { "fid": 107, "Title": "Согласие", "Address": "Комсомольская площадь, 10, Шуя", "Latitude": 56.85177, "Longitude": 41.372262, "Rating": 3.5, "Review_count": 7, "Category": "Страховая компания", "Phone": "+74935137169", "URL": "https://www.soglasie.ru/", "TYPE": "услуги" }, "geometry": { "type": "Point", "coordinates": [ 4605539.138805901631713, 7694076.824772318825126 ] } },
{ "type": "Feature", "properties": { "fid": 108, "Title": "Сигма", "Address": "Комсомольская площадь, 10, Шуя", "Latitude": 56.851608, "Longitude": 41.372584, "Rating": 0.0, "Review_count": 0, "Category": "Бухгалтерские услуги", "Phone": "+74935128595", "URL": "N/A", "TYPE": "услуги" }, "geometry": { "type": "Point", "coordinates": [ 4605574.983681937679648, 7694043.911049827933311 ] } },
{ "type": "Feature", "properties": { "fid": 109, "Title": "Шарм", "Address": "Комсомольская площадь, 12, Шуя", "Latitude": 56.851032, "Longitude": 41.373154, "Rating": 4.9, "Review_count": 88, "Category": "Салон красоты", "Phone": "+79106931976", "URL": "N/A", "TYPE": "услуги" }, "geometry": { "type": "Point", "coordinates": [ 4605638.435791689902544, 7693926.885639620013535 ] } },
{ "type": "Feature", "properties": { "fid": 110, "Title": "Адвокаты", "Address": "Комсомольская площадь, 12, Шуя", "Latitude": 56.851619, "Longitude": 41.373082, "Rating": 0.0, "Review_count": 1, "Category": "Адвокаты", "Phone": "N/A", "URL": "N/A", "TYPE": "услуги" }, "geometry": { "type": "Point", "coordinates": [ 4605630.42078835144639, 7694046.145927691832185 ] } },
{ "type": "Feature", "properties": { "fid": 111, "Title": "Земельно-кадастровый центр", "Address": "Комсомольская площадь, 12, Шуя", "Latitude": 56.851035, "Longitude": 41.373327, "Rating": 4.3, "Review_count": 3, "Category": "Кадастровые работы", "Phone": "+79065129349", "URL": "http://zk-centr.ru/", "TYPE": "услуги" }, "geometry": { "type": "Point", "coordinates": [ 4605657.694063597358763, 7693927.49514228105545 ] } },
{ "type": "Feature", "properties": { "fid": 112, "Title": "Фото на документы", "Address": "Комсомольская площадь, 12, Шуя", "Latitude": 56.851033, "Longitude": 41.373576, "Rating": 4.5, "Review_count": 16, "Category": "Фотоуслуги", "Phone": "+74935132288", "URL": "N/A", "TYPE": "услуги" }, "geometry": { "type": "Point", "coordinates": [ 4605685.412616804242134, 7693927.088807169348001 ] } },
{ "type": "Feature", "properties": { "fid": 113, "Title": "Спектр", "Address": "Комсомольская площадь, 12, Шуя", "Latitude": 56.851018, "Longitude": 41.373513, "Rating": 0.0, "Review_count": 0, "Category": "Агентство недвижимости", "Phone": "+79012824280", "URL": "N/A", "TYPE": "услуги" }, "geometry": { "type": "Point", "coordinates": [ 4605678.399488884024322, 7693924.041294525377452 ] } },
{ "type": "Feature", "properties": { "fid": 114, "Title": "Ника", "Address": "ул. Шевченко, 2, Иваново", "Latitude": 56.851589, "Longitude": 41.373069, "Rating": 0.0, "Review_count": 1, "Category": "Автомобильные грузоперевозки", "Phone": "+79092496595", "URL": "N/A", "TYPE": "услуги" }, "geometry": { "type": "Point", "coordinates": [ 4605628.973634972237051, 7694040.050807797349989 ] } },
{ "type": "Feature", "properties": { "fid": 115, "Title": "НБД-Банк", "Address": "Комсомольская площадь, 12, Шуя", "Latitude": 56.851017, "Longitude": 41.373573, "Rating": 0.0, "Review_count": 0, "Category": "Платёжный терминал", "Phone": "+78002509815", "URL": "N/A", "TYPE": "услуги" }, "geometry": { "type": "Point", "coordinates": [ 4605685.078658332116902, 7693923.838127059862018 ] } },
{ "type": "Feature", "properties": { "fid": 116, "Title": "Медведь", "Address": "Комсомольская площадь, 12, Шуя", "Latitude": 56.851009, "Longitude": 41.373218, "Rating": 0.0, "Review_count": 0, "Category": "Охранное предприятие", "Phone": "N/A", "URL": "N/A", "TYPE": "услуги" }, "geometry": { "type": "Point", "coordinates": [ 4605645.560239100828767, 7693922.212787526659667 ] } },
{ "type": "Feature", "properties": { "fid": 117, "Title": "ТМК", "Address": "Комсомольская площадь, 14, Шуя", "Latitude": 56.851786, "Longitude": 41.374965, "Rating": 4.5, "Review_count": 51, "Category": "Тепличное оборудование", "Phone": "+78003508302", "URL": "https://tmk-company.ru/", "TYPE": "ритейл" }, "geometry": { "type": "Point", "coordinates": [ 4605840.035389516502619, 7694080.075518103316426 ] } },
{ "type": "Feature", "properties": { "fid": 118, "Title": "Медио Оптика", "Address": "Комсомольская площадь, 14, Шуя", "Latitude": 56.851534, "Longitude": 41.375162, "Rating": 4.3, "Review_count": 14, "Category": "Салон оптики", "Phone": "+79109805108", "URL": "N/A", "TYPE": "услуги" }, "geometry": { "type": "Point", "coordinates": [ 4605861.965329202823341, 7694028.876434072852135 ] } },
{ "type": "Feature", "properties": { "fid": 119, "Title": "Детали Машин", "Address": "Комсомольская площадь, 14, Шуя", "Latitude": 56.851468, "Longitude": 41.3752, "Rating": 4.2, "Review_count": 3, "Category": "Магазин автозапчастей и автотоваров", "Phone": "+79644920034", "URL": "http://azgaz.ru/", "TYPE": "ритейл" }, "geometry": { "type": "Point", "coordinates": [ 4605866.195469852536917, 7694015.467207363806665 ] } },
{ "type": "Feature", "properties": { "fid": 120, "Title": "Промсвязьбанк", "Address": "Комсомольская площадь, 14, Шуя", "Latitude": 56.852046, "Longitude": 41.374996, "Rating": 3.5, "Review_count": 14, "Category": "Банк", "Phone": "+78003330303", "URL": "https://ib.psbank.ru/store/products/sto-credit?LG=111635791&utm_campaign=rb_sto-credit_media_july2024_maps&utm_content=button&utm_medium=maps&utm_source=yandex", "TYPE": "услуги" }, "geometry": { "type": "Point", "coordinates": [ 4605843.486293731257319, 7694132.900332732126117 ] } },
{ "type": "Feature", "properties": { "fid": 121, "Title": "Промсвязьбанк", "Address": "Комсомольская площадь, 14, Шуя", "Latitude": 56.852016, "Longitude": 41.374982, "Rating": 0.0, "Review_count": 0, "Category": "Банкомат", "Phone": "+78003330303", "URL": "https://www.psbank.ru/", "TYPE": "услуги" }, "geometry": { "type": "Point", "coordinates": [ 4605841.927820859476924, 7694126.805143004283309 ] } },
{ "type": "Feature", "properties": { "fid": 122, "Title": "Автокласс", "Address": "Кооперативная ул., 17, Шуя", "Latitude": 56.83487, "Longitude": 41.386396, "Rating": 4.2, "Review_count": 12, "Category": "Магазин автозапчастей и автотоваров", "Phone": "+79023125338", "URL": "N/A", "TYPE": "ритейл" }, "geometry": { "type": "Point", "coordinates": [ 4607112.528488773852587, 7690644.003477925434709 ] } },
{ "type": "Feature", "properties": { "fid": 123, "Title": "Пивоман", "Address": "Кооперативная ул., 17, Шуя", "Latitude": 56.83486, "Longitude": 41.386558, "Rating": 4.2, "Review_count": 15, "Category": "Магазин пива", "Phone": "N/A", "URL": "N/A", "TYPE": "ритейл" }, "geometry": { "type": "Point", "coordinates": [ 4607130.562246282584965, 7690641.972683303058147 ] } },
{ "type": "Feature", "properties": { "fid": 124, "Title": "Стоматологическая клиника", "Address": "Кооперативная ул., 17, Шуя", "Latitude": 56.835757, "Longitude": 41.386128, "Rating": 4.0, "Review_count": 4, "Category": "Стоматологическая клиника", "Phone": "N/A", "URL": "N/A", "TYPE": "услуги" }, "geometry": { "type": "Point", "coordinates": [ 4607082.694865241646767, 7690824.137127315625548 ] } },
{ "type": "Feature", "properties": { "fid": 125, "Title": "Детская стоматологическая поликлиника", "Address": "Кооперативная ул., 17, Шуя", "Latitude": 56.835691, "Longitude": 41.3861, "Rating": 4.0, "Review_count": 14, "Category": "Детская поликлиника", "Phone": "+74935146535", "URL": "N/A", "TYPE": null }, "geometry": { "type": "Point", "coordinates": [ 4607079.577919499017298, 7690810.733574069105089 ] } },
{ "type": "Feature", "properties": { "fid": 126, "Title": "Металлоконструкции", "Address": "Кооперативная ул., 17, Шуя", "Latitude": 56.835229, "Longitude": 41.386122, "Rating": 0.0, "Review_count": 0, "Category": "Металлоконструкции", "Phone": "+79915309748", "URL": "N/A", "TYPE": "ритейл" }, "geometry": { "type": "Point", "coordinates": [ 4607082.02694829646498, 7690716.9093655673787 ] } },
{ "type": "Feature", "properties": { "fid": 127, "Title": "Комплекс Дубки на улице Вихрева 82", "Address": "ул. Вихрева, 82, Шуя", "Latitude": 56.835412, "Longitude": 41.386194, "Rating": 0.0, "Review_count": 0, "Category": "Гостиница", "Phone": "N/A", "URL": "N/A", "TYPE": "размещение" }, "geometry": { "type": "Point", "coordinates": [ 4607090.041951633989811, 7690754.073361086659133 ] } },
{ "type": "Feature", "properties": { "fid": 128, "Title": "Фараон", "Address": "Кооперативная ул., 19, Шуя", "Latitude": 56.834796, "Longitude": 41.387355, "Rating": 4.2, "Review_count": 66, "Category": "Ресторан", "Phone": "+79158462630", "URL": "N/A", "TYPE": "общепит" }, "geometry": { "type": "Point", "coordinates": [ 4607219.283880445174873, 7690628.975610610097647 ] } },
{ "type": "Feature", "properties": { "fid": 129, "Title": "Wildberries", "Address": "Кооперативная ул., 19, Шуя", "Latitude": 56.835126, "Longitude": 41.387649, "Rating": 0.0, "Review_count": 0, "Category": "Пункт выдачи", "Phone": "N/A", "URL": "https://www.wildberries.ru/", "TYPE": "ритейл" }, "geometry": { "type": "Point", "coordinates": [ 4607252.01181073859334, 7690695.992005676031113 ] } },
{ "type": "Feature", "properties": { "fid": 130, "Title": "Комплекс Дубки на улице Кооперативная 27", "Address": "Кооперативная ул., 27, Шуя", "Latitude": 56.8348, "Longitude": 41.3917, "Rating": 0.0, "Review_count": 0, "Category": "Жильё посуточно", "Phone": "+79605081345", "URL": "N/A", "TYPE": "размещение" }, "geometry": { "type": "Point", "coordinates": [ 4607702.967067942023277, 7690629.787927001714706 ] } },
{ "type": "Feature", "properties": { "fid": 131, "Title": "Апартаменты Шестиместная двушка Dubki с 4 кроватями", "Address": "Кооперативная ул., 27, Шуя", "Latitude": 56.8348, "Longitude": 41.3917, "Rating": 0.0, "Review_count": 0, "Category": "Гостиница", "Phone": "+79051068242", "URL": "N/A", "TYPE": "размещение" }, "geometry": { "type": "Point", "coordinates": [ 4607702.967067942023277, 7690629.787927001714706 ] } },
{ "type": "Feature", "properties": { "fid": 132, "Title": "Дубки", "Address": "Кооперативная ул., 33, Шуя", "Latitude": 56.83461, "Longitude": 41.394127, "Rating": 0.0, "Review_count": 0, "Category": "Гостиница", "Phone": "+79051068242", "URL": "http://dubki-shuya.ru/", "TYPE": "размещение" }, "geometry": { "type": "Point", "coordinates": [ 4607973.139472096227109, 7690591.202994708903134 ] } },
{ "type": "Feature", "properties": { "fid": 133, "Title": "Wildberries", "Address": "Кооперативная ул., 35А, Шуя", "Latitude": 56.835436, "Longitude": 41.395276, "Rating": 4.5, "Review_count": 4, "Category": "Пункт выдачи", "Phone": "N/A", "URL": "https://www.wildberries.ru/", "TYPE": "ритейл" }, "geometry": { "type": "Point", "coordinates": [ 4608101.045567018911242, 7690758.947341237217188 ] } },
{ "type": "Feature", "properties": { "fid": 134, "Title": "Ozon", "Address": "Кооперативная ул., 35А, Шуя", "Latitude": 56.835105, "Longitude": 41.395266, "Rating": 4.3, "Review_count": 19, "Category": "Пункт выдачи", "Phone": "+74952321000", "URL": "https://www.ozon.ru/", "TYPE": "ритейл" }, "geometry": { "type": "Point", "coordinates": [ 4608099.93237210996449, 7690691.727308320812881 ] } },
{ "type": "Feature", "properties": { "fid": 135, "Title": "Boxberry", "Address": "Кооперативная ул., 35А, Шуя", "Latitude": 56.835748, "Longitude": 41.395443, "Rating": 4.2, "Review_count": 2, "Category": "Курьерские услуги", "Phone": "+78002348000", "URL": "https://boxberry.ru/", "TYPE": "услуги" }, "geometry": { "type": "Point", "coordinates": [ 4608119.635921981185675, 7690822.309368656948209 ] } },
{ "type": "Feature", "properties": { "fid": 136, "Title": "Школа танца Gala Dance", "Address": "Кооперативная ул., 35А, Шуя", "Latitude": 56.835394, "Longitude": 41.395293, "Rating": 4.0, "Review_count": 1, "Category": "Студия йоги", "Phone": "+79203542928", "URL": "N/A", "TYPE": "досуг" }, "geometry": { "type": "Point", "coordinates": [ 4608102.937998361885548, 7690750.417878030799329 ] } },
{ "type": "Feature", "properties": { "fid": 137, "Title": "Смайлик", "Address": "Кооперативная ул., 41, Шуя", "Latitude": 56.833977, "Longitude": 41.398557, "Rating": 4.3, "Review_count": 32, "Category": "Магазин канцтоваров", "Phone": "N/A", "URL": "N/A", "TYPE": "ритейл" }, "geometry": { "type": "Point", "coordinates": [ 4608466.284816310741007, 7690462.655664992518723 ] } },
{ "type": "Feature", "properties": { "fid": 138, "Title": "Авокадо", "Address": "Кооперативная ул., 41, Шуя", "Latitude": 56.833991, "Longitude": 41.398453, "Rating": 3.0, "Review_count": 27, "Category": "Магазин продуктов", "Phone": "+79605072939", "URL": "http://авокадо.рф/", "TYPE": "ритейл" }, "geometry": { "type": "Point", "coordinates": [ 4608454.707589268684387, 7690465.498710302636027 ] } },
{ "type": "Feature", "properties": { "fid": 139, "Title": "Цуп", "Address": "Кооперативная ул., 41, Шуя", "Latitude": 56.833982, "Longitude": 41.398485, "Rating": 0.0, "Review_count": 0, "Category": "Платёжный терминал", "Phone": "+78003025051", "URL": "http://cuppay.ru/", "TYPE": "услуги" }, "geometry": { "type": "Point", "coordinates": [ 4608458.269812974147499, 7690463.67103819642216 ] } },
{ "type": "Feature", "properties": { "fid": 140, "Title": "Мир лекарств", "Address": "Кооперативная ул., 43, Шуя", "Latitude": 56.833902, "Longitude": 41.39943, "Rating": 4.4, "Review_count": 29, "Category": "Аптека", "Phone": "+74935144789", "URL": "https://мирлекарств37.рф/", "TYPE": "ритейл" }, "geometry": { "type": "Point", "coordinates": [ 4608563.466731774620712, 7690447.425083294510841 ] } },
{ "type": "Feature", "properties": { "fid": 141, "Title": "Лилия", "Address": "Кооперативная ул., 43, Шуя", "Latitude": 56.834002, "Longitude": 41.399369, "Rating": 4.2, "Review_count": 13, "Category": "Парикмахерская", "Phone": "+74935146802", "URL": "N/A", "TYPE": "услуги" }, "geometry": { "type": "Point", "coordinates": [ 4608556.676242834888399, 7690467.732532367110252 ] } },
{ "type": "Feature", "properties": { "fid": 142, "Title": "Эхинацея", "Address": "Кооперативная ул., 45, Шуя", "Latitude": 56.833819, "Longitude": 41.400453, "Rating": 4.5, "Review_count": 23, "Category": "Аптека", "Phone": "+74935131241", "URL": "N/A", "TYPE": "ритейл" }, "geometry": { "type": "Point", "coordinates": [ 4608677.346570855006576, 7690430.56994191557169 ] } },
{ "type": "Feature", "properties": { "fid": 143, "Title": "Пятница", "Address": "Кооперативная ул., 51, Шуя", "Latitude": 56.834114, "Longitude": 41.404263, "Rating": 4.0, "Review_count": 19, "Category": "Магазин пива", "Phone": "N/A", "URL": "N/A", "TYPE": "ритейл" }, "geometry": { "type": "Point", "coordinates": [ 4609101.473830777220428, 7690490.476939972490072 ] } },
{ "type": "Feature", "properties": { "fid": 144, "Title": "Лаборатория судебных экспертиз", "Address": "Кооперативная ул., 51, Шуя", "Latitude": 56.834038, "Longitude": 41.40434, "Rating": 4.2, "Review_count": 12, "Category": "Оценочная компания", "Phone": "+79106939669", "URL": "http://audit37.ru/", "TYPE": "услуги" }, "geometry": { "type": "Point", "coordinates": [ 4609110.045431568287313, 7690475.04322736337781 ] } },
{ "type": "Feature", "properties": { "fid": 145, "Title": "Гурман", "Address": "Кооперативная ул., 51, Шуя", "Latitude": 56.833963, "Longitude": 41.404223, "Rating": 3.4, "Review_count": 44, "Category": "Магазин продуктов", "Phone": "N/A", "URL": "N/A", "TYPE": "ритейл" }, "geometry": { "type": "Point", "coordinates": [ 4609097.021051146090031, 7690459.812620750628412 ] } },
{ "type": "Feature", "properties": { "fid": 146, "Title": "Цуп", "Address": "Кооперативная ул., 51, Шуя", "Latitude": 56.833926, "Longitude": 41.404216, "Rating": 0.0, "Review_count": 0, "Category": "Платёжный терминал", "Phone": "+78003025051", "URL": "N/A", "TYPE": "услуги" }, "geometry": { "type": "Point", "coordinates": [ 4609096.241814710199833, 7690452.298866105265915 ] } },
{ "type": "Feature", "properties": { "fid": 147, "Title": "Платёжный терминал", "Address": "Кооперативная ул., 51, Шуя", "Latitude": 56.834043, "Longitude": 41.404349, "Rating": 0.0, "Review_count": 0, "Category": "Платёжный терминал", "Phone": "+74957434985", "URL": "N/A", "TYPE": "услуги" }, "geometry": { "type": "Point", "coordinates": [ 4609111.047306985594332, 7690476.058602225035429 ] } },
{ "type": "Feature", "properties": { "fid": 148, "Title": "Платёжный терминал", "Address": "Кооперативная ул., 51, Шуя", "Latitude": 56.834043, "Longitude": 41.404349, "Rating": 0.0, "Review_count": 0, "Category": "Платёжный терминал", "Phone": "+74956621500", "URL": "N/A", "TYPE": "услуги" }, "geometry": { "type": "Point", "coordinates": [ 4609111.047306985594332, 7690476.058602225035429 ] } },
{ "type": "Feature", "properties": { "fid": 149, "Title": "ЮMoney", "Address": "Кооперативная ул., 51, Шуя", "Latitude": 56.834043, "Longitude": 41.404349, "Rating": 0.0, "Review_count": 0, "Category": "Платёжный терминал", "Phone": "+74951978668", "URL": "N/A", "TYPE": "услуги" }, "geometry": { "type": "Point", "coordinates": [ 4609111.047306985594332, 7690476.058602225035429 ] } },
{ "type": "Feature", "properties": { "fid": 150, "Title": "Комплекс Дубки Молодежная студия около Университета", "Address": "Кооперативная ул., 51, Шуя", "Latitude": 56.83404, "Longitude": 41.40435, "Rating": 0.0, "Review_count": 0, "Category": "Жильё посуточно", "Phone": "+79051068242", "URL": "N/A", "TYPE": "размещение" }, "geometry": { "type": "Point", "coordinates": [ 4609111.158626476302743, 7690475.449377290904522 ] } },
{ "type": "Feature", "properties": { "fid": 151, "Title": "Платёжный терминал", "Address": "Кооперативная ул., 51, Шуя", "Latitude": 56.834043, "Longitude": 41.404349, "Rating": 0.0, "Review_count": 0, "Category": "Платёжный терминал", "Phone": "+74957873333", "URL": "N/A", "TYPE": "услуги" }, "geometry": { "type": "Point", "coordinates": [ 4609111.047306985594332, 7690476.058602225035429 ] } },
{ "type": "Feature", "properties": { "fid": 152, "Title": "Детская библиотека", "Address": "Костромская ул., 1, Шуя", "Latitude": 56.855915, "Longitude": 41.384746, "Rating": 4.3, "Review_count": 8, "Category": "Библиотека", "Phone": "+74935141740", "URL": "http://shuya.library.ru/", "TYPE": "услуги" }, "geometry": { "type": "Point", "coordinates": [ 4606928.85132896527648, 7694919.017756481654942 ] } },
{ "type": "Feature", "properties": { "fid": 153, "Title": "Золотой улей", "Address": "Костромская ул., 1Б, Шуя", "Latitude": 56.855996, "Longitude": 41.385597, "Rating": 4.2, "Review_count": 2, "Category": "Мёд и продукты пчеловодства", "Phone": "+79203619810", "URL": "N/A", "TYPE": "ритейл" }, "geometry": { "type": "Point", "coordinates": [ 4607023.584215629845858, 7694935.476501911878586 ] } },
{ "type": "Feature", "properties": { "fid": 154, "Title": "Автосалон Global", "Address": "Костромская ул., 18, Шуя", "Latitude": 56.855553, "Longitude": 41.388006, "Rating": 4.2, "Review_count": 35, "Category": "Автосалон", "Phone": "+79158161602", "URL": "N/A", "TYPE": "услуги" }, "geometry": { "type": "Point", "coordinates": [ 4607291.752868951298296, 7694845.461825239472091 ] } },
{ "type": "Feature", "properties": { "fid": 155, "Title": "ЕвроДетали", "Address": "Костромская ул., 19А, Шуя", "Latitude": 56.856375, "Longitude": 41.389, "Rating": 4.1, "Review_count": 1, "Category": "Магазин автозапчастей и автотоваров", "Phone": "N/A", "URL": "N/A", "TYPE": "ритейл" }, "geometry": { "type": "Point", "coordinates": [ 4607402.404442800208926, 7695012.48765030875802 ] } },
{ "type": "Feature", "properties": { "fid": 156, "Title": "Авокадо", "Address": "Кохомская ул., 10, Шуя", "Latitude": 56.857049, "Longitude": 41.34539, "Rating": 4.1, "Review_count": 17, "Category": "Магазин продуктов", "Phone": "N/A", "URL": "http://авокадо.рф/", "TYPE": "ритейл" }, "geometry": { "type": "Point", "coordinates": [ 4602547.761449305340648, 7695149.443448239006102 ] } },
{ "type": "Feature", "properties": { "fid": 157, "Title": "Нотариус Шаброва Е.Г.", "Address": "Красноармейский пер., 6, Шуя", "Latitude": 56.847374, "Longitude": 41.378943, "Rating": 4.1, "Review_count": 7, "Category": "Нотариусы", "Phone": "+74935141073", "URL": "N/A", "TYPE": "услуги" }, "geometry": { "type": "Point", "coordinates": [ 4606282.864323891699314, 7693183.735228012315929 ] } },
{ "type": "Feature", "properties": { "fid": 158, "Title": "Магнит Моя цена", "Address": "Красноармейский пер., 6, Шуя", "Latitude": 56.848112, "Longitude": 41.378303, "Rating": 4.1, "Review_count": 23, "Category": "Супермаркет", "Phone": "+78002009002", "URL": "https://magnit.ru/", "TYPE": "ритейл" }, "geometry": { "type": "Point", "coordinates": [ 4606211.619849784299731, 7693333.659646140411496 ] } },
{ "type": "Feature", "properties": { "fid": 159, "Title": "Сбербанк России", "Address": "Красноармейский пер., 6, Шуя", "Latitude": 56.847503, "Longitude": 41.378827, "Rating": 0.0, "Review_count": 0, "Category": "Платёжный терминал", "Phone": "+74955005550", "URL": "N/A", "TYPE": "услуги" }, "geometry": { "type": "Point", "coordinates": [ 4606269.951262960210443, 7693209.941314663738012 ] } },
{ "type": "Feature", "properties": { "fid": 160, "Title": "Век", "Address": "Красноармейский пер., 6, Шуя", "Latitude": 56.846937, "Longitude": 41.379077, "Rating": 0.0, "Review_count": 0, "Category": "Ритуальные услуги", "Phone": "+79038787060", "URL": "N/A", "TYPE": "услуги" }, "geometry": { "type": "Point", "coordinates": [ 4606297.781135658733547, 7693094.96024411264807 ] } },
{ "type": "Feature", "properties": { "fid": 161, "Title": "Гармония", "Address": "Красноармейский пер., 7, Шуя", "Latitude": 56.848026, "Longitude": 41.379409, "Rating": 3.7, "Review_count": 5, "Category": "Парикмахерская", "Phone": "N/A", "URL": "N/A", "TYPE": "услуги" }, "geometry": { "type": "Point", "coordinates": [ 4606334.73920660186559, 7693316.188626190647483 ] } },
{ "type": "Feature", "properties": { "fid": 162, "Title": "Нотариус Курбатова Ирина Валентиновна", "Address": "Красноармейский пер., 7, Шуя", "Latitude": 56.848146, "Longitude": 41.379394, "Rating": 4.4, "Review_count": 14, "Category": "Нотариусы", "Phone": "+74935141112", "URL": "N/A", "TYPE": "услуги" }, "geometry": { "type": "Point", "coordinates": [ 4606333.069414239376783, 7693340.566804680973291 ] } },
{ "type": "Feature", "properties": { "fid": 163, "Title": "Ozon", "Address": "Красноармейский пер., 7, Шуя", "Latitude": 56.848062, "Longitude": 41.379394, "Rating": 4.6, "Review_count": 21, "Category": "Пункт выдачи", "Phone": "+74952321000", "URL": "https://www.ozon.ru/", "TYPE": "ритейл" }, "geometry": { "type": "Point", "coordinates": [ 4606333.069414239376783, 7693323.502071497030556 ] } },
{ "type": "Feature", "properties": { "fid": 164, "Title": "Финансовые услуги на кассе", "Address": "3-я Лежневская ул., 2, Шуя", "Latitude": 56.834737, "Longitude": 41.345536, "Rating": 0.0, "Review_count": 0, "Category": "Финансовые услуги на кассе", "Phone": "+73833358088", "URL": "N/A", "TYPE": "услуги" }, "geometry": { "type": "Point", "coordinates": [ 4602564.014094961807132, 7690616.993953981436789 ] } },
{ "type": "Feature", "properties": { "fid": 165, "Title": "Armos", "Address": "ул. Ленина, 3, Шуя", "Latitude": 56.85353, "Longitude": 41.375959, "Rating": 3.4, "Review_count": 1, "Category": "Матрасы", "Phone": "+78001008580", "URL": "https://ivanovo.armos-market.ru/", "TYPE": "ритейл" }, "geometry": { "type": "Point", "coordinates": [ 4605950.686963365413249, 7694434.415175540372729 ] } },
{ "type": "Feature", "properties": { "fid": 166, "Title": "Инвестторгбанк", "Address": "ул. Ленина, 3, Шуя", "Latitude": 56.853563, "Longitude": 41.376253, "Rating": 3.9, "Review_count": 7, "Category": "Банк", "Phone": "+78002004545", "URL": "https://www.itb.ru/?utm_campaign=kartochka&utm_medium=cpp&utm_source=yandexmaps&utm_term=main.link", "TYPE": "услуги" }, "geometry": { "type": "Point", "coordinates": [ 4605983.414893657900393, 7694441.120156891644001 ] } },
{ "type": "Feature", "properties": { "fid": 167, "Title": "Юнистрим", "Address": "ул. Ленина, 3, Шуя", "Latitude": 56.853616, "Longitude": 41.376234, "Rating": 0.0, "Review_count": 0, "Category": "Денежные переводы", "Phone": "+78002004545", "URL": "http://unistream.ru/", "TYPE": "услуги" }, "geometry": { "type": "Point", "coordinates": [ 4605981.299823332577944, 7694451.888775727711618 ] } },
{ "type": "Feature", "properties": { "fid": 168, "Title": "Инвестторгбанк", "Address": "ул. Ленина, 3, Шуя", "Latitude": 56.85354, "Longitude": 41.376125, "Rating": 0.0, "Review_count": 0, "Category": "Банкомат", "Phone": "+78002004545", "URL": "N/A", "TYPE": "услуги" }, "geometry": { "type": "Point", "coordinates": [ 4605969.16599883697927, 7694436.446987444534898 ] } },
{ "type": "Feature", "properties": { "fid": 169, "Title": "Стильная обувь", "Address": "ул. Ленина, 3, Шуя", "Latitude": 56.853511, "Longitude": 41.375774, "Rating": 0.0, "Review_count": 0, "Category": "Магазин обуви", "Phone": "N/A", "URL": "N/A", "TYPE": "ритейл" }, "geometry": { "type": "Point", "coordinates": [ 4605930.092857568524778, 7694430.554734424687922 ] } },
{ "type": "Feature", "properties": { "fid": 170, "Title": "Адвокат", "Address": "ул. Ленина, 3, Шуя", "Latitude": 56.853572, "Longitude": 41.376373, "Rating": 0.0, "Review_count": 0, "Category": "Адвокаты", "Phone": "N/A", "URL": "N/A", "TYPE": "услуги" }, "geometry": { "type": "Point", "coordinates": [ 4605996.77323255315423, 7694442.948789198882878 ] } },
{ "type": "Feature", "properties": { "fid": 171, "Title": "Центр детского творчества", "Address": "площадь Ленина, 3, Шуя", "Latitude": 56.855174, "Longitude": 41.373927, "Rating": 4.4, "Review_count": 24, "Category": "Дополнительное образование", "Phone": "+74935142457", "URL": "http://цдт.образованиешуя.рф/", "TYPE": "услуги" }, "geometry": { "type": "Point", "coordinates": [ 4605724.485758072696626, 7694768.452375607565045 ] } },
{ "type": "Feature", "properties": { "fid": 172, "Title": "Аюрведа", "Address": "ул. Ленина, 5, Шуя", "Latitude": 56.853689, "Longitude": 41.377423, "Rating": 4.2, "Review_count": 8, "Category": "Фитопродукция, БАДы", "Phone": "+79806840566", "URL": "http://www.vedacenter.ru/", "TYPE": "ритейл" }, "geometry": { "type": "Point", "coordinates": [ 4606113.658697886392474, 7694466.721049385145307 ] } },
{ "type": "Feature", "properties": { "fid": 173, "Title": "Адалин", "Address": "ул. Ленина, 5, Шуя", "Latitude": 56.853638, "Longitude": 41.376812, "Rating": 4.6, "Review_count": 11, "Category": "Ювелирный магазин", "Phone": "+74935141359", "URL": "N/A", "TYPE": "ритейл" }, "geometry": { "type": "Point", "coordinates": [ 4606045.642489011399448, 7694456.358772948384285 ] } },
{ "type": "Feature", "properties": { "fid": 174, "Title": "Алмаз-Золото", "Address": "ул. Ленина, 5, Шуя", "Latitude": 56.853967, "Longitude": 41.377419, "Rating": 4.1, "Review_count": 9, "Category": "Ювелирный магазин", "Phone": "+74935144053", "URL": "http://almaz-gold37.ru/", "TYPE": "ритейл" }, "geometry": { "type": "Point", "coordinates": [ 4606113.213419923558831, 7694523.205864395014942 ] } },
{ "type": "Feature", "properties": { "fid": 175, "Title": "Елена", "Address": "площадь Ленина, 6, Шуя", "Latitude": 56.8542, "Longitude": 41.37626, "Rating": 4.3, "Review_count": 67, "Category": "Медцентр, клиника", "Phone": "+74935142133", "URL": "http://elenamc.ru/", "TYPE": "услуги" }, "geometry": { "type": "Point", "coordinates": [ 4605984.194130093790591, 7694570.547778529115021 ] } },
{ "type": "Feature", "properties": { "fid": 176, "Title": "Магия света", "Address": "площадь Ленина, 6, Шуя", "Latitude": 56.85424, "Longitude": 41.3766, "Rating": 4.3, "Review_count": 9, "Category": "Светильники", "Phone": "+74935131740", "URL": "N/A", "TYPE": "ритейл" }, "geometry": { "type": "Point", "coordinates": [ 4606022.042756963521242, 7694578.675175531767309 ] } },
{ "type": "Feature", "properties": { "fid": 177, "Title": "Калейдоскоп", "Address": "площадь Ленина, 16, Шуя", "Latitude": 56.854298, "Longitude": 41.378025, "Rating": 3.9, "Review_count": 2, "Category": "Товары для творчества и рукоделия", "Phone": "+79106820220", "URL": "N/A", "TYPE": "ритейл" }, "geometry": { "type": "Point", "coordinates": [ 4606180.673031344078481, 7694590.459916680119932 ] } },
{ "type": "Feature", "properties": { "fid": 178, "Title": "Glamour kids", "Address": "площадь Ленина, 16, Шуя", "Latitude": 56.854407, "Longitude": 41.378052, "Rating": 5.0, "Review_count": 31, "Category": "Магазин детской одежды", "Phone": "N/A", "URL": "N/A", "TYPE": "ритейл" }, "geometry": { "type": "Point", "coordinates": [ 4606183.678657595068216, 7694612.607152259908617 ] } },
{ "type": "Feature", "properties": { "fid": 179, "Title": "Все в Дом", "Address": "площадь Ленина, 16, Шуя", "Latitude": 56.854429, "Longitude": 41.378044, "Rating": 4.3, "Review_count": 5, "Category": "Магазин хозтоваров и бытовой химии", "Phone": "+79203530201", "URL": "N/A", "TYPE": "ритейл" }, "geometry": { "type": "Point", "coordinates": [ 4606182.78810166940093, 7694617.077244363725185 ] } },
{ "type": "Feature", "properties": { "fid": 180, "Title": "Пара", "Address": "площадь Ленина, 16, Шуя", "Latitude": 56.854433, "Longitude": 41.378255, "Rating": 4.1, "Review_count": 3, "Category": "Магазин обуви", "Phone": "N/A", "URL": "N/A", "TYPE": "ритейл" }, "geometry": { "type": "Point", "coordinates": [ 4606206.276514226570725, 7694617.889988662675023 ] } },
{ "type": "Feature", "properties": { "fid": 181, "Title": "Шакира", "Address": "площадь Ленина, 18, Шуя", "Latitude": 56.854467, "Longitude": 41.378547, "Rating": 4.9, "Review_count": 71, "Category": "Магазин одежды", "Phone": "+79038899388", "URL": "N/A", "TYPE": "ритейл" }, "geometry": { "type": "Point", "coordinates": [ 4606238.781805537641048, 7694624.798318752087653 ] } },
{ "type": "Feature", "properties": { "fid": 182, "Title": "Shakira", "Address": "площадь Ленина, 18, Шуя", "Latitude": 56.854434, "Longitude": 41.378549, "Rating": 0.0, "Review_count": 0, "Category": "Магазин одежды", "Phone": "N/A", "URL": "N/A", "TYPE": "ритейл" }, "geometry": { "type": "Point", "coordinates": [ 4606239.004444519989192, 7694618.093174751847982 ] } },
{ "type": "Feature", "properties": { "fid": 183, "Title": "Магнит Косметик", "Address": "ул. Ленина, 19, Шуя", "Latitude": 56.8541, "Longitude": 41.380182, "Rating": 4.2, "Review_count": 24, "Category": "Магазин парфюмерии и косметики", "Phone": "+78002009002", "URL": "https://magnitcosmetic.ru/", "TYPE": "ритейл" }, "geometry": { "type": "Point", "coordinates": [ 4606420.789172984659672, 7694550.229324189946055 ] } },
{ "type": "Feature", "properties": { "fid": 184, "Title": "Центральный", "Address": "ул. Ленина, 19, Шуя", "Latitude": 56.854093, "Longitude": 41.379961, "Rating": 4.1, "Review_count": 9, "Category": "Торговый центр", "Phone": "N/A", "URL": "N/A", "TYPE": "ритейл" }, "geometry": { "type": "Point", "coordinates": [ 4606396.187565519474447, 7694548.807034426368773 ] } },
{ "type": "Feature", "properties": { "fid": 185, "Title": "Апельсин", "Address": "ул. Ленина, 19, Шуя", "Latitude": 56.854153, "Longitude": 41.380102, "Rating": 2.5, "Review_count": 17, "Category": "Фотоуслуги", "Phone": "+79158389015", "URL": "http://фотостудия-апельсин.рф/", "TYPE": "услуги" }, "geometry": { "type": "Point", "coordinates": [ 4606411.883613721467555, 7694560.998098198324442 ] } },
{ "type": "Feature", "properties": { "fid": 186, "Title": "Автошкола № 1", "Address": "ул. Ленина, 19, Шуя", "Latitude": 56.854172, "Longitude": 41.380147, "Rating": 4.5, "Review_count": 30, "Category": "Автошкола", "Phone": "+79806945976", "URL": "N/A", "TYPE": "услуги" }, "geometry": { "type": "Point", "coordinates": [ 4606416.892990807071328, 7694564.858605819754303 ] } },
{ "type": "Feature", "properties": { "fid": 187, "Title": "Автоэмали Шуя", "Address": "ул. Ленина, 19, Шуя", "Latitude": 56.853945, "Longitude": 41.379678, "Rating": 4.0, "Review_count": 9, "Category": "Автоэмали, автомобильные краски", "Phone": "+79300054547", "URL": "http://avtoamalishyia.ru/", "TYPE": "ритейл" }, "geometry": { "type": "Point", "coordinates": [ 4606364.68414962477982, 7694518.73582771141082 ] } },
{ "type": "Feature", "properties": { "fid": 188, "Title": "Ванильное небо", "Address": "ул. Ленина, 19, Шуя", "Latitude": 56.854142, "Longitude": 41.380165, "Rating": 4.4, "Review_count": 45, "Category": "Свадебный салон", "Phone": "+79065108078", "URL": "N/A", "TYPE": "услуги" }, "geometry": { "type": "Point", "coordinates": [ 4606418.896741640754044, 7694558.763068373315036 ] } },
{ "type": "Feature", "properties": { "fid": 189, "Title": "Фасон", "Address": "ул. Ленина, 19, Шуя", "Latitude": 56.854132, "Longitude": 41.380057, "Rating": 0.0, "Review_count": 0, "Category": "Магазин одежды", "Phone": "N/A", "URL": "N/A", "TYPE": "ритейл" }, "geometry": { "type": "Point", "coordinates": [ 4606406.874236634932458, 7694556.731223646551371 ] } },
{ "type": "Feature", "properties": { "fid": 190, "Title": "Уникальный семейный магазин", "Address": "ул. Ленина, 19, Шуя", "Latitude": 56.85418, "Longitude": 41.380091, "Rating": 0.0, "Review_count": 2, "Category": "Магазин одежды", "Phone": "N/A", "URL": "N/A", "TYPE": "ритейл" }, "geometry": { "type": "Point", "coordinates": [ 4606410.659099322743714, 7694566.48408329859376 ] } },
{ "type": "Feature", "properties": { "fid": 191, "Title": "Чайхана Лола", "Address": "ул. Ленина, 19, Шуя", "Latitude": 56.854104, "Longitude": 41.379923, "Rating": 0.0, "Review_count": 2, "Category": "Кафе", "Phone": "+79612470101", "URL": "N/A", "TYPE": "общепит" }, "geometry": { "type": "Point", "coordinates": [ 4606391.957424868829548, 7694551.042061315849423 ] } },
{ "type": "Feature", "properties": { "fid": 192, "Title": "Саквояж", "Address": "ул. Ленина, 19, Шуя", "Latitude": 56.85394, "Longitude": 41.379485, "Rating": 0.0, "Review_count": 0, "Category": "Магазин сумок и чемоданов", "Phone": "N/A", "URL": "N/A", "TYPE": "ритейл" }, "geometry": { "type": "Point", "coordinates": [ 4606343.199487902224064, 7694517.719910649582744 ] } },
{ "type": "Feature", "properties": { "fid": 193, "Title": "Империя отдыха", "Address": "ул. Ленина, 19, Шуя", "Latitude": 56.853985, "Longitude": 41.380047, "Rating": 0.0, "Review_count": 0, "Category": "Турагентство", "Phone": "N/A", "URL": "N/A", "TYPE": "услуги" }, "geometry": { "type": "Point", "coordinates": [ 4606405.761041726917028, 7694526.863169100135565 ] } },
{ "type": "Feature", "properties": { "fid": 194, "Title": "Ассоль", "Address": "ул. Ленина, 19, Шуя", "Latitude": 56.854064, "Longitude": 41.379968, "Rating": 0.0, "Review_count": 0, "Category": "Служба знакомств", "Phone": "N/A", "URL": "N/A", "TYPE": "услуги" }, "geometry": { "type": "Point", "coordinates": [ 4606396.966801954433322, 7694542.914693972095847 ] } },
{ "type": "Feature", "properties": { "fid": 195, "Title": "Шуйская недвижимость", "Address": "ул. Ленина, 20, Шуя", "Latitude": 56.853721, "Longitude": 41.381374, "Rating": 4.9, "Review_count": 41, "Category": "Агентство недвижимости", "Phone": "+79106805858", "URL": "http://домшуя.рф/", "TYPE": "услуги" }, "geometry": { "type": "Point", "coordinates": [ 4606553.482006010599434, 7694473.222877135500312 ] } },
{ "type": "Feature", "properties": { "fid": 196, "Title": "Саквояж", "Address": "ул. Ленина, 20, Шуя", "Latitude": 56.853737, "Longitude": 41.381449, "Rating": 0.0, "Review_count": 0, "Category": "Магазин галантереи и аксессуаров", "Phone": "N/A", "URL": "N/A", "TYPE": "ритейл" }, "geometry": { "type": "Point", "coordinates": [ 4606561.830967820249498, 7694476.473793106153607 ] } },
{ "type": "Feature", "properties": { "fid": 197, "Title": "Касса взаимопомощи", "Address": "ул. Ленина, 20, Шуя", "Latitude": 56.853753, "Longitude": 41.381524, "Rating": 0.0, "Review_count": 0, "Category": "Микрофинансовая организация", "Phone": "+79158128080", "URL": "https://kreditkassa.ru/", "TYPE": "услуги" }, "geometry": { "type": "Point", "coordinates": [ 4606570.179929628968239, 7694479.724710469134152 ] } },
{ "type": "Feature", "properties": { "fid": 198, "Title": "МТС", "Address": "ул. Ленина, 26, Шуя", "Latitude": 56.853852, "Longitude": 41.38261, "Rating": 3.5, "Review_count": 26, "Category": "Салон связи", "Phone": "+78002500052", "URL": "https://shop.mts.ru/", "TYPE": "услуги" }, "geometry": { "type": "Point", "coordinates": [ 4606691.072896630503237, 7694499.83979269862175 ] } },
{ "type": "Feature", "properties": { "fid": 199, "Title": "Финансовые услуги на кассе", "Address": "ул. Ленина, 26, Шуя", "Latitude": 56.853808, "Longitude": 41.382627, "Rating": 0.0, "Review_count": 0, "Category": "Финансовые услуги на кассе", "Phone": "+73833358088", "URL": "N/A", "TYPE": "услуги" }, "geometry": { "type": "Point", "coordinates": [ 4606692.965327974408865, 7694490.899749555625021 ] } },
{ "type": "Feature", "properties": { "fid": 200, "Title": "Финансовые услуги на кассе", "Address": "ул. Ленина, 26, Шуя", "Latitude": 56.853808, "Longitude": 41.382627, "Rating": 0.0, "Review_count": 0, "Category": "Финансовые услуги на кассе", "Phone": "+74959212800", "URL": "N/A", "TYPE": "услуги" }, "geometry": { "type": "Point", "coordinates": [ 4606692.965327974408865, 7694490.899749555625021 ] } },
{ "type": "Feature", "properties": { "fid": 201, "Title": "МТС", "Address": "ул. Ленина, 26, Шуя", "Latitude": 56.853808, "Longitude": 41.382627, "Rating": 0.0, "Review_count": 0, "Category": "Платёжный терминал", "Phone": "+78002500520", "URL": "N/A", "TYPE": "услуги" }, "geometry": { "type": "Point", "coordinates": [ 4606692.965327974408865, 7694490.899749555625021 ] } },
{ "type": "Feature", "properties": { "fid": 202, "Title": "Золотая Корона", "Address": "ул. Ленина, 26, Шуя", "Latitude": 56.853817, "Longitude": 41.382537, "Rating": 0.0, "Review_count": 0, "Category": "Денежные переводы", "Phone": "+74959600555", "URL": "http://koronapay.com/", "TYPE": "услуги" }, "geometry": { "type": "Point", "coordinates": [ 4606682.946573803201318, 7694492.728393884375691 ] } },
{ "type": "Feature", "properties": { "fid": 203, "Title": "Волжская мануфактура", "Address": "ул. Ленина, 30, Шуя", "Latitude": 56.853947, "Longitude": 41.38352, "Rating": 4.0, "Review_count": 7, "Category": "Аптека", "Phone": "+78007772233", "URL": "http://www.volgamanuf.ru/", "TYPE": "ритейл" }, "geometry": { "type": "Point", "coordinates": [ 4606792.373633252456784, 7694519.142194571904838 ] } },
{ "type": "Feature", "properties": { "fid": 204, "Title": "Никс", "Address": "ул. Ленина, 30, Шуя", "Latitude": 56.853935, "Longitude": 41.38381, "Rating": 4.3, "Review_count": 33, "Category": "Компьютерный магазин", "Phone": "+74935144404", "URL": "https://shuya.nix.ru/", "TYPE": "ритейл" }, "geometry": { "type": "Point", "coordinates": [ 4606824.656285582110286, 7694516.703993724659085 ] } },
{ "type": "Feature", "properties": { "fid": 205, "Title": "Полицентр", "Address": "ул. Ленина, 30, Шуя", "Latitude": 56.853949, "Longitude": 41.383818, "Rating": 4.0, "Review_count": 17, "Category": "Полиграфические услуги", "Phone": "+74935144404", "URL": "http://polycentr.ru/", "TYPE": "услуги" }, "geometry": { "type": "Point", "coordinates": [ 4606825.546841508708894, 7694519.548561456613243 ] } },
{ "type": "Feature", "properties": { "fid": 206, "Title": "Мегафон - Yota", "Address": "ул. Ленина, 30, Шуя", "Latitude": 56.853999, "Longitude": 41.383617, "Rating": 3.9, "Review_count": 17, "Category": "Оператор сотовой связи", "Phone": "+78005500500", "URL": "https://iv.megafon.ru/cobrand/", "TYPE": "услуги" }, "geometry": { "type": "Point", "coordinates": [ 4606803.171623859554529, 7694529.707740649580956 ] } },
{ "type": "Feature", "properties": { "fid": 207, "Title": "Ozon", "Address": "ул. Ленина, 30, Шуя", "Latitude": 56.853872, "Longitude": 41.383409, "Rating": 4.5, "Review_count": 9, "Category": "Пункт выдачи", "Phone": "+74952321000", "URL": "https://www.ozon.ru/", "TYPE": "ритейл" }, "geometry": { "type": "Point", "coordinates": [ 4606780.017169774509966, 7694503.903452161699533 ] } },
{ "type": "Feature", "properties": { "fid": 208, "Title": "Антей", "Address": "ул. Ленина, 30, Шуя", "Latitude": 56.853981, "Longitude": 41.38357, "Rating": 4.4, "Review_count": 4, "Category": "Аптека", "Phone": "+74935141366", "URL": "https://aptekaantey.ru/", "TYPE": "ритейл" }, "geometry": { "type": "Point", "coordinates": [ 4606797.939607791602612, 7694526.05043456889689 ] } },
{ "type": "Feature", "properties": { "fid": 209, "Title": "Бизнес-Юрист", "Address": "ул. Ленина, 30, Шуя", "Latitude": 56.85396, "Longitude": 41.383237, "Rating": 4.2, "Review_count": 4, "Category": "Юридические услуги", "Phone": "+78006003740", "URL": "https://b-urist.ru/", "TYPE": "услуги" }, "geometry": { "type": "Point", "coordinates": [ 4606760.87021735869348, 7694521.783579709008336 ] } },
{ "type": "Feature", "properties": { "fid": 210, "Title": "Sherlock", "Address": "ул. Ленина, 30, Шуя", "Latitude": 56.853907, "Longitude": 41.383499, "Rating": 3.8, "Review_count": 2, "Category": "Турагентство", "Phone": "+79611195881", "URL": "N/A", "TYPE": "услуги" }, "geometry": { "type": "Point", "coordinates": [ 4606790.035923945717514, 7694511.014861470088363 ] } },
{ "type": "Feature", "properties": { "fid": 211, "Title": "Taxi № 1", "Address": "ул. Ленина, 30, Шуя", "Latitude": 56.853949, "Longitude": 41.383333, "Rating": 3.7, "Review_count": 3, "Category": "Такси", "Phone": "+74935120101", "URL": "N/A", "TYPE": "услуги" }, "geometry": { "type": "Point", "coordinates": [ 4606771.556888474151492, 7694519.548561456613243 ] } },
{ "type": "Feature", "properties": { "fid": 212, "Title": "Навигатор", "Address": "ул. Ленина, 30, Шуя", "Latitude": 56.853951, "Longitude": 41.383549, "Rating": 3.5, "Review_count": 3, "Category": "Турагентство", "Phone": "+79051567057", "URL": "N/A", "TYPE": "услуги" }, "geometry": { "type": "Point", "coordinates": [ 4606795.601898485794663, 7694519.954928362742066 ] } },
{ "type": "Feature", "properties": { "fid": 213, "Title": "Ремонт одежды", "Address": "ул. Ленина, 30, Шуя", "Latitude": 56.853926, "Longitude": 41.38323, "Rating": 0.0, "Review_count": 1, "Category": "Ремонт одежды", "Phone": "N/A", "URL": "N/A", "TYPE": "услуги" }, "geometry": { "type": "Point", "coordinates": [ 4606760.090980922803283, 7694514.875343607738614 ] } },
{ "type": "Feature", "properties": { "fid": 214, "Title": "Oriflame", "Address": "ул. Ленина, 30, Шуя", "Latitude": 56.853863, "Longitude": 41.383218, "Rating": 0.0, "Review_count": 0, "Category": "Распространители косметики и бытовой химии", "Phone": "N/A", "URL": "N/A", "TYPE": "ритейл" }, "geometry": { "type": "Point", "coordinates": [ 4606758.755147032439709, 7694502.074805132113397 ] } },
{ "type": "Feature", "properties": { "fid": 215, "Title": "Юнистрим", "Address": "ул. Ленина, 30, Шуя", "Latitude": 56.853872, "Longitude": 41.383409, "Rating": 0.0, "Review_count": 0, "Category": "Денежные переводы", "Phone": "+74957445555", "URL": "http://unistream.ru/", "TYPE": "услуги" }, "geometry": { "type": "Point", "coordinates": [ 4606780.017169774509966, 7694503.903452161699533 ] } },
{ "type": "Feature", "properties": { "fid": 216, "Title": "Финансовые услуги на кассе", "Address": "ул. Ленина, 30, Шуя", "Latitude": 56.853872, "Longitude": 41.383409, "Rating": 0.0, "Review_count": 0, "Category": "Финансовые услуги на кассе", "Phone": "+74957445555", "URL": "N/A", "TYPE": "услуги" }, "geometry": { "type": "Point", "coordinates": [ 4606780.017169774509966, 7694503.903452161699533 ] } },
{ "type": "Feature", "properties": { "fid": 217, "Title": "Детки-конфетки", "Address": "ул. Ленина, 30, Шуя", "Latitude": 56.85397, "Longitude": 41.383378, "Rating": 0.0, "Review_count": 1, "Category": "Магазин детской одежды", "Phone": "N/A", "URL": "N/A", "TYPE": "ритейл" }, "geometry": { "type": "Point", "coordinates": [ 4606776.566265559755266, 7694523.81541505549103 ] } },
{ "type": "Feature", "properties": { "fid": 218, "Title": "Финансовые услуги на кассе", "Address": "ул. Ленина, 30, Шуя", "Latitude": 56.8539, "Longitude": 41.3836, "Rating": 0.0, "Review_count": 0, "Category": "Финансовые услуги на кассе", "Phone": "+74957921536", "URL": "N/A", "TYPE": "услуги" }, "geometry": { "type": "Point", "coordinates": [ 4606801.279192516580224, 7694509.592579073272645 ] } },
{ "type": "Feature", "properties": { "fid": 219, "Title": "Институт Подготовки Профессий", "Address": "ул. Ленина, 30, Шуя", "Latitude": 56.853908, "Longitude": 41.383363, "Rating": 0.0, "Review_count": 0, "Category": "Учебный центр", "Phone": "+79519648999", "URL": "N/A", "TYPE": "услуги" }, "geometry": { "type": "Point", "coordinates": [ 4606774.896473198197782, 7694511.218044688925147 ] } },
{ "type": "Feature", "properties": { "fid": 220, "Title": "Парикмахерская", "Address": "ул. Ленина, 36, Шуя", "Latitude": 56.854308, "Longitude": 41.384925, "Rating": 4.1, "Review_count": 6, "Category": "Парикмахерская", "Phone": "N/A", "URL": "N/A", "TYPE": "услуги" }, "geometry": { "type": "Point", "coordinates": [ 4606948.777517817914486, 7694592.491770457476377 ] } },
{ "type": "Feature", "properties": { "fid": 221, "Title": "Столовая", "Address": "ул. Ленина, 51, Шуя", "Latitude": 56.855499, "Longitude": 41.390337, "Rating": 4.6, "Review_count": 311, "Category": "Столовая", "Phone": "+79612447388", "URL": "N/A", "TYPE": "общепит" }, "geometry": { "type": "Point", "coordinates": [ 4607551.23860199097544, 7694834.489454753696918 ] } },
{ "type": "Feature", "properties": { "fid": 222, "Title": "Хозтовары", "Address": "ул. Малахия Белова, 5, Шуя", "Latitude": 56.85552, "Longitude": 41.381312, "Rating": 4.0, "Review_count": 5, "Category": "Замки и запорные устройства", "Phone": "+74935144180", "URL": "N/A", "TYPE": "ритейл" }, "geometry": { "type": "Point", "coordinates": [ 4606546.580197581090033, 7694838.75648583099246 ] } },
{ "type": "Feature", "properties": { "fid": 223, "Title": "Лавка художника Оранжевый кот", "Address": "ул. Малахия Белова, 5, Шуя", "Latitude": 56.855723, "Longitude": 41.381182, "Rating": 4.7, "Review_count": 21, "Category": "Магазин подарков и сувениров", "Phone": "+79092460785", "URL": "N/A", "TYPE": "ритейл" }, "geometry": { "type": "Point", "coordinates": [ 4606532.108663777820766, 7694880.0045768879354 ] } },
{ "type": "Feature", "properties": { "fid": 224, "Title": "Шуйский сувенир", "Address": "ул. Малахия Белова, 5, Шуя", "Latitude": 56.855517, "Longitude": 41.381389, "Rating": 4.1, "Review_count": 10, "Category": "Магазин подарков и сувениров", "Phone": "+74935141294", "URL": "http://shuiskiysuvenir.ru/", "TYPE": "ритейл" }, "geometry": { "type": "Point", "coordinates": [ 4606555.151798372156918, 7694838.1469098161906 ] } },
{ "type": "Feature", "properties": { "fid": 225, "Title": "Мир подарков", "Address": "ул. Малахия Белова, 5, Шуя", "Latitude": 56.855565, "Longitude": 41.381253, "Rating": 0.0, "Review_count": 0, "Category": "Магазин подарков и сувениров", "Phone": "+79960272293", "URL": "N/A", "TYPE": "ритейл" }, "geometry": { "type": "Point", "coordinates": [ 4606540.012347624637187, 7694847.900131952017546 ] } },
{ "type": "Feature", "properties": { "fid": 226, "Title": "Daria by sisters", "Address": "ул. Малахия Белова, 5, Шуя", "Latitude": 56.855484, "Longitude": 41.381169, "Rating": 0.0, "Review_count": 0, "Category": "Магазин одежды", "Phone": "+79106958995", "URL": "N/A", "TYPE": "ритейл" }, "geometry": { "type": "Point", "coordinates": [ 4606530.661510397680104, 7694831.441576885059476 ] } },
{ "type": "Feature", "properties": { "fid": 227, "Title": "Медовый рай", "Address": "ул. Малахия Белова, 5, Шуя", "Latitude": 56.855671, "Longitude": 41.381169, "Rating": 0.0, "Review_count": 0, "Category": "Мёд и продукты пчеловодства", "Phone": "N/A", "URL": "N/A", "TYPE": "ритейл" }, "geometry": { "type": "Point", "coordinates": [ 4606530.661510397680104, 7694869.438542007468641 ] } },
{ "type": "Feature", "properties": { "fid": 228, "Title": "Арт Лео", "Address": "ул. Малахия Белова, 5, Шуя", "Latitude": 56.855503, "Longitude": 41.381347, "Rating": 0.0, "Review_count": 1, "Category": "Школа искусств", "Phone": "+79010346771", "URL": "N/A", "TYPE": "услуги" }, "geometry": { "type": "Point", "coordinates": [ 4606550.476379758678377, 7694835.302222392521799 ] } },
{ "type": "Feature", "properties": { "fid": 229, "Title": "Пирамида", "Address": "ул. Малахия Белова, 7, Шуя", "Latitude": 56.855599, "Longitude": 41.381537, "Rating": 0.0, "Review_count": 1, "Category": "Изготовление памятников и надгробий", "Phone": "+74935131550", "URL": "https://piramida37.ru/", "TYPE": "услуги" }, "geometry": { "type": "Point", "coordinates": [ 4606571.627083010040224, 7694854.808671899139881 ] } },
{ "type": "Feature", "properties": { "fid": 230, "Title": "Артель", "Address": "ул. Мартирия Соловьёва, 16, Шуя", "Latitude": 56.852292, "Longitude": 41.381171, "Rating": 5.0, "Review_count": 68, "Category": "Мебель на заказ", "Phone": "+79109900940", "URL": "N/A", "TYPE": "ритейл" }, "geometry": { "type": "Point", "coordinates": [ 4606530.884149379096925, 7694182.881073554977775 ] } },
{ "type": "Feature", "properties": { "fid": 231, "Title": "Адвокат Малгина Екатерина Евгеньевна", "Address": "ул. Мартирия Соловьёва, 16, Шуя", "Latitude": 56.85217, "Longitude": 41.381055, "Rating": 0.0, "Review_count": 1, "Category": "Адвокаты", "Phone": "+79038897000", "URL": "N/A", "TYPE": "услуги" }, "geometry": { "type": "Point", "coordinates": [ 4606517.971088447608054, 7694158.093835650011897 ] } },
{ "type": "Feature", "properties": { "fid": 232, "Title": "Агентство недвижимости Квадратный метр", "Address": "ул. Мартирия Соловьёва, 16, Шуя", "Latitude": 56.852166, "Longitude": 41.381239, "Rating": 5.0, "Review_count": 96, "Category": "Агентство недвижимости", "Phone": "+79806810006", "URL": "N/A", "TYPE": "услуги" }, "geometry": { "type": "Point", "coordinates": [ 4606538.453874753788114, 7694157.281140698119998 ] } },
{ "type": "Feature", "properties": { "fid": 233, "Title": "Pigment", "Address": "ул. Мартирия Соловьёва, 16, Шуя", "Latitude": 56.852015, "Longitude": 41.381246, "Rating": 0.0, "Review_count": 0, "Category": "Студия перманентного макияжа", "Phone": "+79605060886", "URL": "N/A", "TYPE": "услуги" }, "geometry": { "type": "Point", "coordinates": [ 4606539.233111188746989, 7694126.601970100775361 ] } },
{ "type": "Feature", "properties": { "fid": 234, "Title": "Продукты", "Address": "2-я ул. Металлистов, 9, Шуя", "Latitude": 56.844092, "Longitude": 41.37328, "Rating": 4.1, "Review_count": 3, "Category": "Магазин продуктов", "Phone": "N/A", "URL": "N/A", "TYPE": "ритейл" }, "geometry": { "type": "Point", "coordinates": [ 4605652.462047529406846, 7692517.034131329506636 ] } },
{ "type": "Feature", "properties": { "fid": 235, "Title": "Кабельные телесистемы", "Address": "Милиционный пер., 4, Шуя", "Latitude": 56.848593, "Longitude": 41.374291, "Rating": 3.2, "Review_count": 13, "Category": "Кабельное телевидение", "Phone": "+74935144388", "URL": "N/A", "TYPE": "услуги" }, "geometry": { "type": "Point", "coordinates": [ 4605765.00605272129178, 7693431.376210229471326 ] } },
{ "type": "Feature", "properties": { "fid": 236, "Title": "Роскадастр", "Address": "Милиционный пер., 4, Шуя", "Latitude": 56.84896, "Longitude": 41.374129, "Rating": 0.0, "Review_count": 5, "Category": "БТИ", "Phone": "+78003023342", "URL": "N/A", "TYPE": "услуги" }, "geometry": { "type": "Point", "coordinates": [ 4605746.972295213490725, 7693505.93418727722019 ] } },
{ "type": "Feature", "properties": { "fid": 237, "Title": "Стоматолог 32", "Address": "Милиционный пер., 4, Шуя", "Latitude": 56.848687, "Longitude": 41.373972, "Rating": 4.3, "Review_count": 12, "Category": "Стоматологическая клиника", "Phone": "+79158196209", "URL": "N/A", "TYPE": "услуги" }, "geometry": { "type": "Point", "coordinates": [ 4605729.4951351583004, 7693450.472733872942626 ] } },
{ "type": "Feature", "properties": { "fid": 238, "Title": "Дубки на Милиционном переулке", "Address": "Милиционный пер., 4, Шуя", "Latitude": 56.849, "Longitude": 41.3741, "Rating": 0.0, "Review_count": 0, "Category": "Гостиница", "Phone": "+79051068242", "URL": "N/A", "TYPE": "размещение" }, "geometry": { "type": "Point", "coordinates": [ 4605743.744029980152845, 7693514.060441676527262 ] } },
{ "type": "Feature", "properties": { "fid": 239, "Title": "Продукты", "Address": "1-я Московская ул., 6, Шуя", "Latitude": 56.854136, "Longitude": 41.358796, "Rating": 3.8, "Review_count": 11, "Category": "Магазин продуктов", "Phone": "N/A", "URL": "N/A", "TYPE": "ритейл" }, "geometry": { "type": "Point", "coordinates": [ 4604040.11054287943989, 7694557.54396147094667 ] } },
{ "type": "Feature", "properties": { "fid": 240, "Title": "Изготовление памятников Пирамида", "Address": "1-я Московская ул., 6, Шуя", "Latitude": 56.854302, "Longitude": 41.358897, "Rating": 3.2, "Review_count": 2, "Category": "Изготовление памятников и надгробий", "Phone": "+79303652562", "URL": "https://piramida37.ru/", "TYPE": "услуги" }, "geometry": { "type": "Point", "coordinates": [ 4604051.353811449371278, 7694591.272658125497401 ] } },
{ "type": "Feature", "properties": { "fid": 241, "Title": "Памятники", "Address": "1-я Московская ул., 6, Шуя", "Latitude": 56.854247, "Longitude": 41.358787, "Rating": 0.0, "Review_count": 0, "Category": "Изготовление памятников и надгробий", "Phone": "N/A", "URL": "N/A", "TYPE": "услуги" }, "geometry": { "type": "Point", "coordinates": [ 4604039.108667462132871, 7694580.097470904700458 ] } },
{ "type": "Feature", "properties": { "fid": 242, "Title": "Консультант", "Address": "1-я Московская ул., 8, Шуя", "Latitude": 56.853786, "Longitude": 41.358602, "Rating": 4.4, "Review_count": 6, "Category": "Дополнительное образование", "Phone": "+74935147978", "URL": "https://consultantedu.ru/", "TYPE": "услуги" }, "geometry": { "type": "Point", "coordinates": [ 4604018.514561665244401, 7694486.429731940850616 ] } },
{ "type": "Feature", "properties": { "fid": 243, "Title": "Автожелезо", "Address": "1-я Московская ул., 23, Шуя", "Latitude": 56.846667, "Longitude": 41.355476, "Rating": 4.3, "Review_count": 11, "Category": "Магазин автозапчастей и автотоваров", "Phone": "+74935144839", "URL": "N/A", "TYPE": "ритейл" }, "geometry": { "type": "Point", "coordinates": [ 4603670.529833446256816, 7693040.111231872811913 ] } },
{ "type": "Feature", "properties": { "fid": 244, "Title": "Продукты", "Address": "1-я Московская ул., 24, Шуя", "Latitude": 56.850414, "Longitude": 41.356898, "Rating": 2.8, "Review_count": 13, "Category": "Магазин продуктов", "Phone": "N/A", "URL": "N/A", "TYPE": "ритейл" }, "geometry": { "type": "Point", "coordinates": [ 4603828.826149354688823, 7693801.32913776487112 ] } },
{ "type": "Feature", "properties": { "fid": 245, "Title": "Платёжный терминал", "Address": "1-я Московская ул., 24, Шуя", "Latitude": 56.850437, "Longitude": 41.356774, "Rating": 0.0, "Review_count": 0, "Category": "Платёжный терминал", "Phone": "N/A", "URL": "N/A", "TYPE": "услуги" }, "geometry": { "type": "Point", "coordinates": [ 4603815.022532495670021, 7693806.001915259286761 ] } },
{ "type": "Feature", "properties": { "fid": 246, "Title": "Мир лекарств", "Address": "1-я Московская ул., 26, Шуя", "Latitude": 56.850152, "Longitude": 41.356713, "Rating": 4.4, "Review_count": 26, "Category": "Аптека", "Phone": "+74935144899", "URL": "https://мирлекарств37.рф/", "TYPE": "ритейл" }, "geometry": { "type": "Point", "coordinates": [ 4603808.232043557800353, 7693748.100310673937201 ] } },
{ "type": "Feature", "properties": { "fid": 247, "Title": "Ситилаб", "Address": "1-я Московская ул., 28, Шуя", "Latitude": 56.84992, "Longitude": 41.356073, "Rating": 0.0, "Review_count": 1, "Category": "Медцентр, клиника", "Phone": "+78001003630", "URL": "https://citilab.ru/", "TYPE": "услуги" }, "geometry": { "type": "Point", "coordinates": [ 4603736.98756945040077, 7693700.966699803248048 ] } },
{ "type": "Feature", "properties": { "fid": 248, "Title": "Тематические апартаменты Точка 18+", "Address": "1-я Московская ул., 28, Шуя", "Latitude": 56.849918, "Longitude": 41.356071, "Rating": 0.0, "Review_count": 1, "Category": "Гостевой дом", "Phone": "+79158150050", "URL": "N/A", "TYPE": "размещение" }, "geometry": { "type": "Point", "coordinates": [ 4603736.764930468052626, 7693700.560376848094165 ] } },
{ "type": "Feature", "properties": { "fid": 249, "Title": "София", "Address": "2-я Московская ул., 21, Шуя", "Latitude": 56.855244, "Longitude": 41.356125, "Rating": 1.7, "Review_count": 0, "Category": "Парикмахерская", "Phone": "+79038787476", "URL": "N/A", "TYPE": "услуги" }, "geometry": { "type": "Point", "coordinates": [ 4603742.776182970963418, 7694782.675697833299637 ] } },
{ "type": "Feature", "properties": { "fid": 250, "Title": "АльянсАвто", "Address": "2-я Московская ул., 53, Шуя", "Latitude": 56.851937, "Longitude": 41.354682, "Rating": 4.2, "Review_count": 6, "Category": "Автосервис, автотехцентр", "Phone": "+74935147070", "URL": "N/A", "TYPE": "услуги" }, "geometry": { "type": "Point", "coordinates": [ 4603582.142157755792141, 7694110.754500198177993 ] } },
{ "type": "Feature", "properties": { "fid": 251, "Title": "Kolobox", "Address": "2-я Московская ул., 53, Шуя", "Latitude": 56.851923, "Longitude": 41.354771, "Rating": 4.2, "Review_count": 5, "Category": "Шины и диски", "Phone": "+74935147070", "URL": "https://kolobox.ru/", "TYPE": "ритейл" },