{
"type": "FeatureCollection",
"name": "commerce",
"crs": { "type": "name", "properties": { "name": "urn:ogc:def:crs:EPSG::32637" } },
"features": [
{ "type": "Feature", "properties": { "fid": 1, "Title": "Детская библиотека", "Address": "Костромская ул., 1, Шуя", "Latitude": 56.855915, "Longitude": 41.384746, "Rating": 4.3, "Review_count": 8, "Category": "Библиотека", "Phone": "+74935141740", "URL": "http://shuya.library.ru/", "TYPE": "услуги" }, "geometry": { "type": "Point", "coordinates": [ 645410.787337297806516, 6303881.588278043083847 ] } },
{ "type": "Feature", "properties": { "fid": 2, "Title": "Центр детского творчества", "Address": "площадь Ленина, 3, Шуя", "Latitude": 56.855174, "Longitude": 41.373927, "Rating": 4.4, "Review_count": 24, "Category": "Дополнительное образование", "Phone": "+74935142457", "URL": "http://цдт.образованиешуя.рф/", "TYPE": "услуги" }, "geometry": { "type": "Point", "coordinates": [ 644754.108959375182167, 6303776.188092508353293 ] } },
{ "type": "Feature", "properties": { "fid": 3, "Title": "Магнит Косметик", "Address": "ул. Ленина, 19, Шуя", "Latitude": 56.8541, "Longitude": 41.380182, "Rating": 4.2, "Review_count": 24, "Category": "Магазин парфюмерии и косметики", "Phone": "+78002009002", "URL": "https://magnitcosmetic.ru/", "TYPE": "ритейл" }, "geometry": { "type": "Point", "coordinates": [ 645138.411796461092308, 6303659.042143320664763 ] } },
{ "type": "Feature", "properties": { "fid": 4, "Title": "Центральный", "Address": "ул. Ленина, 19, Шуя", "Latitude": 56.854093, "Longitude": 41.379961, "Rating": 4.1, "Review_count": 9, "Category": "Торговый центр", "Phone": "N/A", "URL": "N/A", "TYPE": "ритейл" }, "geometry": { "type": "Point", "coordinates": [ 645126.143000907381065, 6303668.685473539866507 ] } },
{ "type": "Feature", "properties": { "fid": 5, "Title": "Апельсин", "Address": "ул. Ленина, 19, Шуя", "Latitude": 56.854153, "Longitude": 41.380102, "Rating": 2.5, "Review_count": 17, "Category": "Фотоуслуги", "Phone": "+79158389015", "URL": "http://фотостудия-апельсин.рф/", "TYPE": "услуги" }, "geometry": { "type": "Point", "coordinates": [ 645134.506614368408918, 6303675.661061740480363 ] } },
{ "type": "Feature", "properties": { "fid": 6, "Title": "Автошкола № 1", "Address": "ул. Ленина, 19, Шуя", "Latitude": 56.854172, "Longitude": 41.380147, "Rating": 4.5, "Review_count": 30, "Category": "Автошкола", "Phone": "+79806945976", "URL": "N/A", "TYPE": "услуги" }, "geometry": { "type": "Point", "coordinates": [ 645134.519390046130866, 6303669.328684829175472 ] } },
{ "type": "Feature", "properties": { "fid": 7, "Title": "Ванильное небо", "Address": "ул. Ленина, 19, Шуя", "Latitude": 56.854142, "Longitude": 41.380165, "Rating": 4.4, "Review_count": 45, "Category": "Свадебный салон", "Phone": "+79065108078", "URL": "N/A", "TYPE": "услуги" }, "geometry": { "type": "Point", "coordinates": [ 645135.291608657222241, 6303665.368013011291623 ] } },
{ "type": "Feature", "properties": { "fid": 8, "Title": "Фасон", "Address": "ул. Ленина, 19, Шуя", "Latitude": 56.854132, "Longitude": 41.380057, "Rating": 0.0, "Review_count": 0, "Category": "Магазин одежды", "Phone": "N/A", "URL": "N/A", "TYPE": "ритейл" }, "geometry": { "type": "Point", "coordinates": [ 645131.844547144020908, 6303673.228832815773785 ] } },
{ "type": "Feature", "properties": { "fid": 9, "Title": "Уникальный семейный магазин", "Address": "ул. Ленина, 19, Шуя", "Latitude": 56.85418, "Longitude": 41.380091, "Rating": 0.0, "Review_count": 2, "Category": "Магазин одежды", "Phone": "N/A", "URL": "N/A", "TYPE": "ритейл" }, "geometry": { "type": "Point", "coordinates": [ 645127.616432778537273, 6303674.979145008139312 ] } },
{ "type": "Feature", "properties": { "fid": 10, "Title": "Чайхана Лола", "Address": "ул. Ленина, 19, Шуя", "Latitude": 56.854104, "Longitude": 41.379923, "Rating": 0.0, "Review_count": 2, "Category": "Кафе", "Phone": "+79612470101", "URL": "N/A", "TYPE": "общепит" }, "geometry": { "type": "Point", "coordinates": [ 645123.783764567226171, 6303669.828872346319258 ] } },
{ "type": "Feature", "properties": { "fid": 11, "Title": "Империя отдыха", "Address": "ул. Ленина, 19, Шуя", "Latitude": 56.853985, "Longitude": 41.380047, "Rating": 0.0, "Review_count": 0, "Category": "Турагентство", "Phone": "N/A", "URL": "N/A", "TYPE": "услуги" }, "geometry": { "type": "Point", "coordinates": [ 645131.804145545465872, 6303656.850321455858648 ] } },
{ "type": "Feature", "properties": { "fid": 12, "Title": "Ассоль", "Address": "ул. Ленина, 19, Шуя", "Latitude": 56.854064, "Longitude": 41.379968, "Rating": 0.0, "Review_count": 0, "Category": "Служба знакомств", "Phone": "N/A", "URL": "N/A", "TYPE": "услуги" }, "geometry": { "type": "Point", "coordinates": [ 645126.68204623949714, 6303665.473374560475349 ] } },
{ "type": "Feature", "properties": { "fid": 13, "Title": "Парикмахерская", "Address": "ул. Ленина, 36, Шуя", "Latitude": 56.854308, "Longitude": 41.384925, "Rating": 4.1, "Review_count": 6, "Category": "Парикмахерская", "Phone": "N/A", "URL": "N/A", "TYPE": "услуги" }, "geometry": { "type": "Point", "coordinates": [ 645437.186598516185768, 6303679.060626397840679 ] } },
{ "type": "Feature", "properties": { "fid": 14, "Title": "Пирамида", "Address": "ул. Малахия Белова, 7, Шуя", "Latitude": 56.855599, "Longitude": 41.381537, "Rating": 0.0, "Review_count": 1, "Category": "Изготовление памятников и надгробий", "Phone": "+74935131550", "URL": "https://piramida37.ru/", "TYPE": "услуги" }, "geometry": { "type": "Point", "coordinates": [ 645216.387154054013081, 6303839.608841452747583 ] } },
{ "type": "Feature", "properties": { "fid": 15, "Title": "Перекат", "Address": "ул. Свердлова, 7, Шуя", "Latitude": 56.853859, "Longitude": 41.385171, "Rating": 4.0, "Review_count": 2, "Category": "Товары для рыбалки", "Phone": "N/A", "URL": "https://mastiv.ru/", "TYPE": "ритейл" }, "geometry": { "type": "Point", "coordinates": [ 645450.545765592367388, 6303644.182368019595742 ] } },
{ "type": "Feature", "properties": { "fid": 16, "Title": "Стоматология", "Address": "Союзная площадь, 9, Шуя", "Latitude": 56.852739, "Longitude": 41.372538, "Rating": 0.0, "Review_count": 0, "Category": "Стоматологическая клиника", "Phone": "+79106830811", "URL": "N/A", "TYPE": "услуги" }, "geometry": { "type": "Point", "coordinates": [ 644678.83134641754441, 6303502.296636086888611 ] } },
{ "type": "Feature", "properties": { "fid": 17, "Title": "Адвокаты", "Address": "Союзная площадь, 9, Шуя", "Latitude": 56.852745, "Longitude": 41.372576, "Rating": 0.0, "Review_count": 0, "Category": "Адвокаты", "Phone": "+74935141105", "URL": "N/A", "TYPE": "услуги" }, "geometry": { "type": "Point", "coordinates": [ 644695.795211020158604, 6303519.831689518876374 ] } }
]
}
